[{"lat":49.487168,"lng":8.462423,"name":"Café Vogelfrei","description":"Gemütlich eingerichtetes vegetarisches Café mit wechselnder Auswahl an Kuchen und anderen Leckereien. Für ein kleines Mittagessen werden Quiches und Suppen angeboten. Gelegentlich finden hier Musikabende, Vernissagen, Handarbeits-Workshops und Tatort-Abende\nstatt. Mehr Infos auf der Website oder auf Facebook.\n","price":"€€","city":"Mannheim","website":"www.cafevogelfrei.de","type":"Voll Vegan\n","hours":"Montag geschlossen Di. – Sa. 11:00 -19:00\nSo. 14:00 – 22:00\n","tags":["vegan"]},{"lat":48.3654004,"lng":10.8972728,"name":"Café Dreizehn\n","description":"Das Café Dreizehn ist ein kleines Café in der Mitte von Augsburg. \n","price":"","city":"Augsburg","website":"http://www.cafe-dreizehn.de","type":"Voll Vegan\n","hours":"Siehe Facebook\n","tags":["vegan"]},{"lat":52.489335,"lng":13.394616,"name":"goodies Kreuzberg","description":"veganes und vegetarisches Café, Imbiss und Restaurant. Hier gibt es vor allem gesundes und kreatives Essen.\n","price":"","city":"Berlin","website":"http://www.goodies-berlin.de","type":"Vegan und Vegetarisch\n","hours":"Mo–Fr: 8–19 Uhr\nSa: 8–18 Uhr","tags":["vegan","vegetarisch","regional","tw. bio-zertifiziert\n"]},{"lat":52.507723,"lng":13.449922,"name":"goodies Friedrichshain\n","description":"veganes und vegetarisches Café, Imbiss und Restaurant. Hier gibt es vor allem gesundes und kreatives Essen.","price":"","city":"Berlin","website":"http://www.goodies-berlin.de","type":"Vegan und Vegetarisch\n","hours":"Mo–Sa: 8–20 Uhr\nSo: 10–20 Uhr","tags":["vegan","vegetarisch","tw. bio-zertifiziert","regional\n"]},{"lat":52.511526,"lng":13.452595,"name":"goodies Friedrichshain 2\n","description":"veganes und vegetarisches Café, Imbiss und Restaurant. Hier gibt es vor allem gesundes und kreatives Essen.","price":"","city":"Berlin","website":"http://www.goodies-berlin.de/","type":"Vegan und Vegetarisch\n","hours":"Mo–Fr: 7:30–19 Uhr\nSa–So: 9–19 Uhr","tags":["vegan","vegetarisch","tw. bio-zertifiziert","regional"]},{"lat":52.5508079,"lng":13.4087565,"name":"[eventuell geschlossen?] goodies Prenzlauer Berg\n","description":"veganes und vegetarisches Café, Imbiss und Restaurant. Hier gibt es vor allem gesundes und kreatives Essen.","price":"","city":"Berlin","website":"http://www.goodies-berlin.de","type":"Vegan und Vegetarisch\n","hours":"Mo–Fr: 8–19 Uhr\nSa: 9–19 Uhr\nSo: 10–17 Uhr","tags":["vegan","vegetarisch","tw. bio-zertifiziert","regional"]},{"lat":51.342405,"lng":12.378068,"name":"[eventuell geschlossen?] goodies Leipzig\n","description":"veganes und vegetarisches Café, Imbiss und Restaurant. Hier gibt es vor allem gesundes und kreatives Essen.","price":"","city":"Leipzig","website":"www.goodies-deli.com","type":"Vegan und Vegetarisch\n","hours":"Mo–Sa: 8–20 Uhr","tags":["vegan","vegetarisch","tw. bio-zertifiziert","regional"]},{"lat":52.456142,"lng":13.320611,"name":"goodies Steglitz\n","description":"veganes und vegetarisches Café, Imbiss und Restaurant. Hier gibt es vor allem gesundes und kreatives Essen.","price":"","city":"Berlin","website":"http://www.goodies-berlin.de","type":"Vegan und Vegetarisch\n","hours":"Mo–Fr: 10–20 Uhr\nSa: 9–20 Uhr","tags":["vegan","vegetarisch","tw. bio-zertifiziert","regional"]},{"lat":52.439586,"lng":13.2144020000001,"name":"goodies Zehlendorf\n","description":"veganes und vegetarisches Café, Imbiss und Restaurant. Hier gibt es vor allem gesundes und kreatives Essen.","price":"","city":"Berlin","website":"http://www.goodies-berlin.de","type":"Vegan und Vegetarisch\n","hours":"Mo–Fr: 8–18 Uhr\nSa–So: 10–18 Uhr","tags":["vegan","vegetarisch","tw. bio-zertifiziert","regional"]},{"lat":49.4530379,"lng":11.0725179,"name":"Naturkostladen-Lotos-GmbH","description":"Naturkost und kleines Café. Außerdem gibt es dort Naturkosmetik und andere Bioware.","price":"","city":"Nürnberg","website":"https://www.naturkostladen-lotos.de/","type":"Vegan und Vegetarisch","hours":"Mo - Fr: 9.00 - 18.30 Uhr\nSa: 9.00 - 17.00 Uhr","tags":["biologisch","vegan und vegetarisch"]},{"lat":49.4455158,"lng":11.0577045,"name":"Naturkostladen Lotos","description":"Der Naturkotsladen führt biologische Produkte und bietet ein kleines Bistro mit vegetarischen Spezialitäten.","price":"","city":"Nürnberg","website":"https://www.naturkostladen-lotos.de","type":"Vegan und Vegetarisch","hours":"Mo- Fr: 8.00 - 20.00 Uhr\nSa: 9.00 - 15.00 Uhr","tags":["biologisch","vegan und vegetarisch"]},{"lat":49.4926676,"lng":8.46065329999999,"name":"DANKBAR | kunst + kultur","description":"Die Dankbar ist ein gemeinnütziges Kulturcafe und somit eine Non-Profit- Organisation. Alle Überschüsse werden an gemeinnützige Projekte im Mannheimer Umkreis weiter gegeben. In der Dankbar findet ein vielfältiges Kunst-, Musik- und Kulturprogramm statt.","price":"So viel du magst :-)","city":"Mannheim","website":"https://www.dankbar-mannheim.de","type":"Sozial","hours":"Mo. – Mi. 16:00 – 21:00 Uhr\nDo. – Sa. 16:00 – 24:00 Uhr\nSo. Ruhetag\n","tags":["jeder gibt so viel er kann","gemeinnützig"]},{"lat":49.4971248,"lng":8.4812574,"name":"Café Flamme Rouge","description":"Cafe, das Biokaffee und Biobrot anbietet, sowie Brotaufstriche und Soßen vom Demeter- St. Michaelshof, regionale Weine und vieles mehr.","price":"","city":"Mannheim","website":"http://www.kaffeedepot.de/index.php","type":"Bio-Cafe","hours":"Mo. – Fr. 8:00 - 18:00 Uhr","tags":["bio","vegan und vegetarische Optionen"]},{"lat":49.4738141,"lng":8.4691497,"name":"Eismanufaktur zeitgEISt","description":"Hausgemachtes Speiseeis aus natürlichen Zutaten ohne künstliche Zusatzstoffe. Die Sorten wechseln täglich. Es gibt vegane Eissorten.","price":"€","city":"Mannheim","website":"","type":"Besonderheiten -  Vegane Optionen","hours":"Di-So, 12-19 Uhr\nFeiertags geöffnet\n","tags":["vegane Optionen"]},{"lat":51.9767273,"lng":7.6106092,"name":"Currycult","description":"Currywurst in 13 verschiedenen Schärfegraden, vegan oder mit Wurst von einer mit dem Qualitätssiegel Gold ausgezeichneten Landfleischerei aus dem Münsterland.","price":"","city":"","website":"http://www.currycult.com/","type":"Vegane Optionen\n","hours":"Montag - Sonntag 11:30 - 21:30\n","tags":["\"Wir arbeiten mit qualitativ hochwertigen Produkten und bereiten unsere eigens kreierten Soßen und Dressings frisch für Sie zu. Zusätzlich können Sie zwischen 13 verschiedenen Schärfegraden wählen.\nUnsere Wurst kommt immer frisch von einer mit dem Qualitätssiegel Gold ausgezeichneten Landfleischerei aus dem Münsterland.\n\nEin besonderer Genuss sind auch unsere kross frittierten Pommes nach bewährter belgischer Tradition.\nDazu bieten wir Ihnen eine große Auswahl an Pommesdips","zum Teil auch eigens von uns kreiert und selbstverständlich täglich frisch zubereitet.\""]},{"lat":51.95169,"lng":7.62498000000005,"name":"Issel Cafe Inhaber Ortwin Scheffler, Konditorei","description":"Kuchen, Torten, Pralinen aus großteils regionalen, saisonalen, biologischen und fairen Zutaten, teilweise vegan.","price":"","city":"","website":"http://cafe-issel.de/","type":"Bio-Cafe","hours":"Dienstag - Freitag 9.00 -18.00\nSamstag 9.00-17.00\nSonntag 11.00-17.30","tags":["\"\n\nStändig Neues ausprobieren und gleichzeitig Altes bewahren","diesem Motto haben wir uns verschrieben und auf diese Weise unsere ganz eigene Handschrift entwickelt. Im Café Issel präsentieren wir Ihnen laufend neue Ideen und Produkte","die Tradition und Handwerk mit einer gewissen Raffinesse vereinen.\n\nOb für unsere Torten oder Pralinen und handgeschöpften Schokoladen","bei der Auswahl der Zutaten für unsere Kreationen achten wir besonders auf die Qualität der Rohstoffe. So verwenden wir größtenteils regionale und saisonale Zutaten – nach Möglichkeit biologisch und fair gehandelt.\"\n"]},{"lat":51.9594103,"lng":7.63406350000002,"name":"Cafe SpecOps network","description":"Hin und wieder veganer Brunch, außerdem jeden Tag veganer Kuchen (ein cooler alternativer Laden ;) ). ","price":"","city":"","website":"","type":"Vegane Optionen\n","hours":"http://specops.blogsport.de/","tags":[]},{"lat":51.9573094,"lng":7.64097219999996,"name":"Teilchen & Beschleuniger","description":"Vegetarische und vegane Bagels, aber nicht rein vegetarisch und Kaffee!\n","price":"","city":"","website":"http://teilchenundbeschleuniger.de","type":"Vegane Optionen\n","hours":"Montags – Freitags 8.30 bis es leer ist. Samstags, Sonntags und Feiertags ab 9 bis Ende","tags":[]},{"lat":53.249035,"lng":10.406085,"name":"A venir - Laden & Cafe","description":"Spezialitätenkaffees, Craft Beer und Bioweine sind das Herzstück unseres Laden-Sortiments. Daneben gibt es aber auch weitere schöne Produkte für Genießer, Kenner und Entdecker - alles aus direktem oder fairem Handel, biologischer, regionaler oder handwerklicher Herstellung.","price":"","city":"Lüneburg","website":"www.a-venir.de/","type":"Direct Trade Coffee","hours":"MO: 11:00 - 18:00 Uhr \nDI - DO: 10:00 - 18:00 Uhr\nFR: 10:00 - 18:00 Uhr & 20:00 - 00:30 Uhr \nSA: 10:00 - 18:00 Uhr\nSO: geschlossen","tags":["fairtrade","direct trade","tw. ökologisch","tw. regional"]},{"lat":51.3126093,"lng":9.50476079999999,"name":"Kurbad Jungborn","description":"\"Das Café soll uns Raum bieten, um mit alternativen Formen des gemeinsamen Arbeitens zu experimentieren. Wir betreiben es in einer Gruppe, die in Kollektivstrukturen gleichberechtigt und ohne Chef zusammenarbeitet. Unserer Interpretation nach heißt das, dass wir die Arbeit solidarisch, selbstbestimmt, basisdemokratisch und möglichst hierarchiefrei untereinander organisieren.\"","price":"","city":"Kassel ","website":"http://www.kurbad-jungborn.de/","type":"Sozial","hours":"Öffnungszeiten\nMärz, April, Oktober 13 bis 19 h \nMai-September 13 -21 h \nSonntag 14 - 18 Uhr\nDienstag und Mittwoch Ruhetag","tags":["kollektiv","bio","regional","fair gehandelter Kaffee"]},{"lat":52.490487,"lng":13.4093769999999,"name":"Kiez Vegan","description":"Veganer Bäcker mit Café und Essen","price":"","city":"Berlin","website":"https://www.facebook.com/kiezvegan/","type":"Voll Vegan","hours":"Montag - Freitag: 9-21 Uhr\nSamstag & Sonntag: 10-21 Uhr","tags":["vegan"]},{"lat":52.5375187,"lng":13.4089705,"name":"Café Morgenrot","description":"schönes Café in Berlin - wird kollektiv geführt. Freitags, samstags und sonntags gibt es ein tolles vegetarisches/veganes Frühstücksbuffet/ Brunch. ","price":"","city":"Berlin","website":"http://www.cafe-morgenrot.de/","type":"Vegan und Vegetarisch","hours":"mo geschlossen*\ndi 10-01\nmi 10-01\ndo 10-01\nfr 11-03\nsa 11-03\nso 11-00","tags":["vegan und vegetarisch","sozial und kollektiv","tw. fair und bio"]},{"lat":50.7736239,"lng":6.0911848,"name":"Pfannenzauber","description":"Auf der wechselnden Speisekarte stehen vegane und laktosefreie Gerichte, die auch auf Wunsch glutenfrei serviert werden können.","price":"","city":"Aachen","website":"http://www.pfannenzauber-aachen.de/","type":"Vegan und Vegetarisch","hours":"Mo-Do: 12-14.00 & 18-21.00\nFr & Sa: 12-21.00","tags":["vegan","vegetarisch"]},{"lat":51.484362,"lng":11.9662798,"name":"Ökoase - Vegetarisches Bistro","description":"Vegetarisches Restaurant und Café. Es gibt auch ab und zu vegane Gerichte. Mehr Informationen auf der Website.","price":"","city":"Halle (Saale)","website":"www.oekoase-halle.de","type":"Vegan und Vegetarisch","hours":"Mo. - Sa. 11-16 Uhr","tags":["vegetarisch","vegan"]},{"lat":49.4953758,"lng":8.4645052,"name":"My Heart Beats Vegan [Momentan geschlossen]\n","description":"Veganes Restaurant. Es gibt vor allem Burger in verschiedenen Varianten, aber auch anderes Essen.\n","price":"","city":"Mannheim","website":"http://www.myheartbeatsvegan.de/mannheim","type":"Voll Vegan","hours":"Di-Do 17-22 Uhr; Fr-So 11:30-22 Uhr\n","tags":["vegan"]},{"lat":49.4833023,"lng":8.4729883,"name":"Heller's Vegetarisches Restaurant und Café\n","description":"Das Heller's bietet nicht nur vegetarische und vegane Speisen, sondern mehr als 97% der angebotenen Gerichte sind auch zertifiezierte Bio-Produkte\n","price":"","city":"Mannheim","website":"http://hellers-restaurant.de/","type":"Vegan und Vegetarisch\n","hours":"Mo - Fr: 11-20 Uhr; Sa: 11-17 Uhr; So: 11:30-15 Uhr\n","tags":["biologisch","vegan","vegetarisch\n"]},{"lat":48.7739242,"lng":9.1449031,"name":"Restaurant Lässig\n","description":"Das Restaurant bietet bio- und demeter-zertifizierte Gerichte.\n","price":"","city":"Stuttgart","website":"http://www.restaurant-laessig.de/","type":"Bio-Restaurant\n","hours":"Mo - So: 11.00 - 23.00","tags":["biologisch","tw. auch vegetarisch und vegan\n"]},{"lat":49.4853776,"lng":8.4661943,"name":"Familienbetrieb Mannheim","description":"Der Familienbetrieb bietet viele vegane und vegetarische Optionen, aber auch Fleisch.\n","price":"€€","city":"Mannheim","website":"http://www.familien-betrieb.eu/","type":"Vegane Optionen\n","hours":"Mo-Sa ab 11:30\n","tags":["vegane und vegetarische Optionen\n"]},{"lat":49.3544385,"lng":8.13911669999993,"name":"Wirtshaus Konfetti","description":"Seit Februar 2003 ist das Wirtshaus Konfetti der erste zertifizierte Bioland-Gastronomie-Betrieb in Rheinland-Pfalz und Saarland. Alle Zutaten sind, soweit nicht anders gekennzeichnet, aus kontrolliert biologischer Landwirtschaft.Vegane und vegetarische Optionen werden angeboten.\n","price":"","city":"Neustadt an der Weinstraße","website":"http://www.bioland-wirtshaus-konfetti.de/","type":"Bio-Restaurant","hours":"Mo-Sa: 11:30-23 Uhr\n","tags":["bio","regional","auch vegetarische und vegane Optionen\n"]},{"lat":53.56161,"lng":9.92763000000002,"name":"Vincent Vegan - #thebase","description":"Foodtruck unterwegs in Hamburg. Schaut auf der Website nach - dort findet ihr die aktuellen Termine und Orte. Jeden Sonntag gibt es ein Brunch in der Ruhrstraße 11A. \n","price":"","city":"Hamburg","website":"http://vincent-vegan.com","type":"Voll Vegan\n","hours":"jeden Sonntag zum Brunch von 10 – 15 Uhr","tags":["vegan"]},{"lat":47.6609298,"lng":9.17648650000001,"name":"Eugens bio • cafe • restaurant Konstanz","description":"Inspiriert von der Vielfalt biologischer Grundprodukte, bevorzugt aus regionaler und saisonaler Landwirtschaft, wollen wir Sie mit unserer Interpretation von weltoffener Regionalküche verwöhnen. Viele Gerichte sind auch vegan und glutenfrei – biozertifiziert sind wir und unsere Lieferanten sowieso.","price":"","city":"Konstanz","website":"http://www.eugens.bio/","type":"Bio-Restaurant","hours":"Mo bis Sa 9 Uhr bis 23.00 Uhr\nSo 10.00 Uhr bis 17.30 Uhr","tags":["bio","tw. vegan und vegetarisch"]},{"lat":51.3165767,"lng":12.3731467,"name":"Symbiose - Bio-Veganes Restaurant","description":"\"Das Restaurant Symbiose ist ein gemütliches Lokal auf der \"Karli\", was sich auf vegane Küche in 100% Bio-Qualität spezialisiert hat. Wir setzten sehr großen Wert auf Qualität, Regionalität & Saisonalität, unbelastete Lebensmittel und natürlich Nachhaltigkeit. Wir kochen mit molekular-gefiltertem Wasser mit Quellwasserqualität.\"","price":"","city":"Leipzig","website":"http://www.symbiose-leipzig.de/","type":"Voll Vegan","hours":"Mo: geschlossen\nDi - Sa: 17:00 - 22:00\nSo: 9:30 - 15 Brunch\n 17:00 - 21:00","tags":["vegan","bio","regional"]},{"lat":49.4486953,"lng":11.0821421000001,"name":"AUGUSTE Premium Junkfood","description":"\"Alle Burger und sonstiges Junkfood sind bei uns seit dem 1.12.2013 100% BIO, REGIONAL & FAIR. Für unsere Burger verarbeiten wir nur fränkische Bio-Weiderinder der Rassen Hereford, Angus und Texas Longhorn. So ist für jeden Geschmack etwas dabei. Natürlich sind auch unsere veganen und vegetarischen Burger nun komplett in BIO-Qualität.\"","price":"","city":"Nürnberg","website":"http://www.premium-junkfood.de/","type":"Bio-Restaurant","hours":"Täglich geöffnet: 12:00 - 23:00\nKüche: 12:00 - 22:00","tags":["biologisch zertifiziert","regional","vegane und vegetarische Optionen"]},{"lat":49.4413544,"lng":11.0943743,"name":"KleinAugust Premium-Junkfood.de","description":"\"Alle Burger und sonstiges Junkfood sind bei uns seit dem 1.12.2013 100% BIO, REGIONAL & FAIR. Für unsere Burger verarbeiten wir nur fränkische Bio-Weiderinder der Rassen Hereford, Angus und Texas Longhorn. So ist für jeden Geschmack etwas dabei. Natürlich sind auch unsere veganen und vegetarischen Burger nun komplett in BIO-Qualität.\"","price":"","city":"Nürnberg","website":"http://www.premium-junkfood.de/#","type":"Bio-Restaurant","hours":"Mittwoch bis Sonntag\nMittwoch & Donnerstag: 17:00 - 23:00\nFreitag & Samstag: 16:00 - 23:00\nSonntag: 14:00 - 23:00\nKüchenschluss 22 Uhr","tags":["biologisch zertifiziert","regional","vegane und vegetarische Optionen"]},{"lat":48.7736279,"lng":9.17667059999997,"name":"Vegi-Voodoo-King Stuttgart","description":"Grandiose Falafel! Probiert auch die PomStumes mit der veganen Mayonnaise!\n","price":"","city":"Stuttgart","website":"","type":"Vegan und Vegetarisch\n","hours":"","tags":[]},{"lat":49.4881298,"lng":8.47233610000001,"name":"LEAF FOOD","description":"Vegan Food To Go -In dem kleinen, grünen Take-Away, das auch über ein paar gemütliche Sitzgelegenheiten verfügt, bekommst du leckeres und gesundes Essen auf die Hand. Ob ein herzhafter Wrap, ein schmackhaftes Sandwich oder eine kleine Nascherei – immer lecker gesund vegan.","price":"€€","city":"Mannheim","website":"http://www.leaf-food.de/","type":"Voll Vegan","hours":"Mo. –Fr. 12:00-15:00\n 17:30-21:30\nSa. 12:00-16:00\n","tags":["vegan","gut für Tier und Umwelt"]},{"lat":49.4904602,"lng":8.4711255,"name":"Mundgrün Veganerie [momentan geschlossen]","description":"VEGAN FOOD\nTäglich wechselndes Tagesgericht, Döner, Yufka, Wraps, Suppe, Salat, Kuchen, Kaffee, Tee, Smoothies, Soulfood\n","price":"€€","city":"Mannheim","website":"http://www.facebook.com/mundgruen","type":"Voll Vegan","hours":"","tags":["vegan","gut für Tier und Umwelt"]},{"lat":49.4937315,"lng":8.45799499999998,"name":"Kombüse Mannheim","description":"Leckere vegetarische und vegane Küche zu studierendenfreundlichen\nPreisen im Herzen des Jungbuschs. Alternativ angehaucht, freundliches Personal, hippes Publikum. Freitag- und Samstagabend gut\ngefüllt, wenn mensch mit mehreren Leuten kommt, besser reservieren. Ständig wechselnde Tagesgerichte zu 5,50 Euro pro Portion. Dazu\nleckeren Kuchen und Kaffee.\n","price":"€ - €€","city":"Mannheim","website":"http://www.kombuese-ma.de","type":"Vegan und Vegetarisch","hours":"Montag geschlossen\nDi. – Do. 11:00 - 23:00\nFr. 11:00 – 01:00\nSa. 17:00 – 01:00\nSonntag geschlossen\n","tags":["vegan und vegetarisch","gut für Tier und Umwelt"]},{"lat":49.50583,"lng":8.46915999999999,"name":"Vegabar","description":"Vegetarische Spezialitäten aus aller Welt\nImbiss – Lieferservice -Catering\n","price":"€","city":"Mannheim","website":"https://seekty.com/de/mannheim/vegetarische-und-vegane-restaurant/vegabar/","type":"Vegan und Vegetarisch","hours":"Mo - So. 12:00 -21:00","tags":["vegan","vegetarisch","gut für Tier und Umwelt"]},{"lat":49.4994304,"lng":8.46902939999995,"name":"Café Rost","description":"Café - Bar - Restaurant\nNeben wechselnden Tagesgerichten sind die Standards selbstgebackenes Brot & frisch belegte Focaccia-Sandwichs, frische Salate, heiße Suppen, SchniPoSa (Soja-Schnitzel mit Bio-Pommes und Salat), leckere hausgemachte Kuchen, verschiedene Biere, Bio-Weine, Longdrinks und gute Schnaps-Auswahl, Kaffee- und Teespezialitäten - alles mit Liebe gemacht und auch zum Mitnehmen. Am Wochenende und Feiertags gibt es Rosty Burger in verschiedenen Varianten.\n","price":"€","city":"Mannheim","website":"https://www.facebook.com/caferost/","type":"Vegan und Vegetarisch","hours":"Mo. -Mi. 12:00 -22:00\nDo.-Fr. 12:00 -01:00\nSa. 14:00 -01:00\nSo. 14:00 -22:00\n","tags":["vegan","vegetarisch","gut für Tier und Umwelt"]},{"lat":49.487259,"lng":8.46435169999995,"name":"Mémoires d´Indochine","description":"Ein schönes familiäres Restaurant mit vielen vegetarischen und veganen Optionen.","price":"€€","city":"Mannheim","website":"http://memoires-indochine.de/","type":"Vegane Optionen","hours":"Mo. – Sa. 11:30 – 22:oo Uhr","tags":["vegane und vegetarische Optionen"]},{"lat":49.4924566,"lng":8.46191250000004,"name":"Glück & Verstand","description":"Restaurant mit einer großen Auswahl an vegetarischen und veganen Gerichten.","price":"€€","city":"Mannheim","website":"http://www.glueckundverstand.de/","type":"Vegane Optionen","hours":"Di. – Fr. 11:30 – 15:00 Uhr und ab 18:00 Uhr\nSa. Ab 18:00 Uhr\nSo. – Mo. Ruhetag\n","tags":["vegan und vegetarische Optionen"]},{"lat":49.4904009,"lng":8.46666640000001,"name":"Cigköftem","description":"\"Die türkische Franchise-Kette wurde 1993 in der Türkei gegründet und ist mittlerweile in Europa, Amerika und in der Türkei mit mehreren Filialen vertreten.\n\nBei dem dort angebotenen Gericht Cigköfte handelt es sich um eine traditionelle türkische Speise, welche normalerweise aus Hackfleisch zubereitet wird. Hier jedoch entsteht die pikante Masse aus Bulgur (Weizen), Tomatenmark, gemahlenen Chilischoten und 18 weiteren Kräutern und Gewürzen.\"","price":"€","city":"Mannheim","website":"https://www.facebook.com/Cigk%C3%B6ftem-Mannheim-294715507208503/","type":"Voll Vegan","hours":"10:00  - 00:00","tags":["vegan"]},{"lat":49.4945099,"lng":8.48397699999998,"name":"Heinrichsbrücke","description":"Hausgemachte Küche, unter anderem auch speziell vegetarisch - vegane Gerichte.","price":"€€","city":"Mannheim","website":"http://www.heinrichsbruecke-mannheim.de/","type":"Vegane Optionen","hours":"Mo. –Mi. 12:00 -22:00Uhr\nDo. + Fr.: 12:00-1:00Uhr\nSa. 14:00 – 1:00 Uhr\nSo. 14:00 – 22:00Uhr\n","tags":["vegan","vegetarisch"]},{"lat":49.4976118,"lng":8.48101819999999,"name":"Café COHRS","description":"Kunst und Kultur Café mit einer großen Auswahl an vegetarischen und veganen Gerichten.","price":"","city":"Mannheim","website":"http://cohrs-mannheim.de/","type":"Vegane Optionen","hours":"Mo. –Fr 11:00-18:00Uhr\nSa. 10:00-15Uhr\nSonntag Brunch nach Ankündigung\n","tags":["sehr viele vegetarische und vegane Optionen (Mittagstisch)"]},{"lat":51.9571231,"lng":7.62684539999998,"name":"Krawummel - different dining","description":"Krawummel: veganes Restaurant mit großteils fairen, nachhaltigen und ökologischen Produkten.","price":"","city":"","website":"http://www.krawummel.de/nachhaltig-und-gesund.html","type":"Voll Vegan\n","hours":"Montag - Freitag 11:30 - 22:00\nSamstag 11:00 - 22:00\nSonntag 12:00 - 21:00\n","tags":["größtenteils fair und nachhaltig produzierte Zutaten\n"]},{"lat":51.9548017,"lng":7.65017979999993,"name":"Bucks. Vegan Frengeln","description":"Bucks - Vegan Frengeln: veganes Restaurant mit regionalen und saisonalen Produkten.","price":"","city":"","website":"http://bucks-vegan.de/philosophie/","type":"Voll Vegan\n","hours":"Mittwoch - Sonntag 15:00 - 23:00\n","tags":["\"Wir vom BUCKS. vegan frengeln haben es uns zur Aufgabe gemacht","euch in freundlicher Atmosphäre frisch zubereitete Produkte aus dem Münsterland aufzutischen. Bei der wöchentlich wechselnden Karte mit saisonalen Produkten verwenden wir vorrangig Obst","Gemüse und Getreideprodukte vom Markt oder Höfen aus dem Umland.\""]},{"lat":51.9543698,"lng":7.63696249999998,"name":"Prütt Café","description":"Vegetarisches Restaurant mit frischen, großteils Bio-, Fairtrade- und regionalen Produkten.","price":"","city":"","website":"www.pruett-cafe.de/","type":"Vegan und Vegetarisch\n","hours":"Montag - Freitag: 12:00 - 23:00\nSamstag, Sonntag, Feiertag: 10:00 - 23:00\n","tags":["\"Als erstes vegetarisches Restaurant in Münster können wir mittlerweile auf fast 30 Jahre Erfahrung zurückblicken. Unser Ziel ist »gutes Essen« zu machen: Frisch","nahrhaft und natürlich lecker. Darum verwenden wir hochwertige","frische Zutaten","die wir täglich in Handarbeit verarbeiten. »Gut« heißt für uns auch nachhaltig: Wann immer es geht","benutzen wir Bio-","Fair-Trade- und regionale Produkte.\""]},{"lat":51.9580087,"lng":7.63902499999995,"name":"Peperoni","description":"Vegetarisches Restaurant mit vielen veganen Gerichten und gemütlicher Atmosphäre.\n","price":"","city":"","website":"https://www.facebook.com/pg/peperoni.munster","type":"Vegan und Vegetarisch\n","hours":"","tags":[]},{"lat":51.95039,"lng":7.62509999999997,"name":"Makimaki sushi-green","description":"Veganes Sushi\n","price":"","city":"","website":"http://sushigreen.de/","type":"Voll Vegan\n","hours":"Dienstag - Freitag: 17:00 - 22:00\nSamstag, Sonntag, Feiertag: 15:00 - 22:00\n","tags":["\"sushi green ist für uns die logische Weiterentwicklung des klassischen Sushi – in einer Zeit","in der Meere überfischt sind und Ressourcen zur Neige gehen. In einer Zeit","in der immer mehr Menschen so bewusst wie nie zuvor essen – „vegan“ ist dabei viel mehr als nur ein Ernährungsstil","es ist eine Lebenseinstellung.\n\nNach über 15 Jahren im „Sushi-Business“ erfolgreich","wissen wir","wie man traumhafte vegane Sushi-Kreationen zaubert – lassen Sie sich entführen in eine ganz neue Welt der veganen Küche.\"\n\nAuf der Suche nach einem Ort für ein Date?\nsushi green hat wöchentliche Sushi-Kurse im Angebot!\n"]},{"lat":51.9631548,"lng":7.61802809999995,"name":"Café Malik","description":"Große vegane Auswahl von Frühstück über Mittagessen, Kaffee, Kuchen, Waffeln und Pfannkuchen bis zum Abendessen\n","price":"","city":"","website":"http://www.cafe-malik.de/","type":"Vegane Optionen\n","hours":"Täglich 9:00 - 1:00\n","tags":["\"Das Café Malik wurde am 11. März 1983 eröffnet. Gegründet hat es der Verein zur Förderung der Pressefreiheit","der Lesekultur und des Medienpluralismus.\n\nDen Namen Malik erhielt das Café zu Ehren der deutsch-jüdischen Lyrikerin Else-Lasker Schüler (1869-1945) und ihrer bekannten Geschichte „Der Malik” (1919) sowie auch zu Ehren des 1917 von Wieland Herzfelde","seinem Bruder John Heartfield und George Grosz gegründeten Malik-Verlags","der vielen linksintellektuellen SchriftstellerInnen und KünstlerInnen eine Plattform bot.\n\nIn dieser Tradition sieht sich auch das Café Malik","das durch wechselnde Kunstausstellungen jungen Kü0nstlerinnen und Künstlern eine Möglichkeit zur Präsentation ihrer Kunstwerke in der Öffentlichkeit geschaffen hat","und mit seinem großen Angebot an Zeitungen jedem Interessierten die Möglichkeit zur intellektuellen Auseinandersetzung mit dem Zeitgeschehen eröffnen möchte.\""]},{"lat":51.9634145,"lng":7.61859989999994,"name":"Frauenstraße 24","description":"Vegane Hauptgerichte, manchmal Kuchen, Pflanzenmilch für Kaffee (nicht rein vegetarisch, coole Kulturprojekte)","price":"","city":"","website":"http://f24-kultur.de/","type":"Vegane Optionen\n","hours":"","tags":["\"In monatlichem bis sechs-wöchentlichem Wechsel finden Ausstellungen statt. Poetry-Slam","Impro-Theater und das Quiz-Quartett werden regelmäßig durchgeführt. Die „F24-Sonntags-Matinee“ ist ein Forum","in dem aktuelle kulturelle und politische Diskussionen in unregelmäßigen Abständen organisiert werden. Lesungen finden sich im Programm","andere politische Initiativen und Vereine haben die Möglichkeit und nutzen diese auch immer häufiger","in der F24 zu brisanten Themen und Diskussionen einzuladen. Der KulturVerein „Frauenstraße 24“ verwirklicht damit die Ziele seiner Satzung „Kunst","Kultur und Bildung“ zu fördern und die „Frauenstraße“ zu einem Ort offener kultureller","politischer und gesellschaftlicher Debatte zu machen.\""]},{"lat":48.80088,"lng":9.01508999999999,"name":"Grüner Michel","description":"Leckeres und ausgefallenes vegetarisch und veganes Essen mitten in Leonberg. \"Der Grüne Michel steht für frischen vegetarisch-veganen Genuss. Unkompliziert, unverkrampft und unglaublich lecker.\" Außerdem: \"Mit Inspirationen aus aller Welt, kalten und warmen Snacks, raffinierten Menüs und leckeren Überraschungen hat’s der Grüne Michel faustdick hinter den Ohren. Er beweist Euch, wie viel Genuss in vegetarisch-veganen Gerichten steckt: zwischendurch im Bistro, schnell auf die Hand oder ausgedehnt gemütlich im Restaurant.\"","price":"€€","city":"Leonberg","website":"www.gruener-michel.de","type":"Vegan und Vegetarisch","hours":"Mo. geschlossen\nDi. - Do. 11.30 - 14.00 Uhr und 18.00 - 22.30 Uhr\nFr. 11.30 -14.00 Uhr und 18.00 - 23.30 Uhr Sa. 17.30 - 23.30 Uhr\nSo. 17.30 - 21:30 Uhr","tags":["vegan","vegetarisch","regional","saisonal"]},{"lat":51.425545,"lng":6.88415399999997,"name":"Restaurant Ronja","description":"\"Wir bieten vegetarische, vegane und zum Teil glutenfreie Speisen im mediterranen Stil an. Von Klassikern wie unserer Linsensuppe und verschiedenen Salaten, bis zu eigenen Kreationen wie unserem Sellerieschnitzel oder gefüllten Gemüsevariationen bieten wir eine breite Vielfalt der vegetarischen und veganen Küche an.\"","price":"","city":"Mülheim an der Ruhr","website":"http://restaurant-ronja.de/","type":"Vegan und Vegetarisch ","hours":"Montag - Sonntag: 12:00 - 21:00 Uhr","tags":["vegan","vegetarisch "]},{"lat":53.25049,"lng":10.4115400000001,"name":"Jim Curry","description":"Der Ruhrpott - Imbiss in Lüneburg.\nVon Currywurst \"Die Echte\"über Pommes bis zum Schaschlik bieten wir alles an was ein Imbiss haben sollte. Auch vegane Alternativen!","price":"","city":"Lüneburg","website":"http://www.jimcurry.de/","type":"Vegane Optionen","hours":"Mo - Do: 11:30 - 00:00, Fr - Sa: 11:30 - 5:00, So: 11:30 - 00:00","tags":["vegan"]},{"lat":51.3276738,"lng":9.49998340000002,"name":"Zum glücklichen Bergschweinchen","description":"\"Wir bekommen das Gemüse, vom Bauer Ullrich aus Ihringshausen \nWir machen jeden Tag alles frisch, \nDer Vöner kommt gekühlt aus Berlin.\nDie Pommes machen wir auch selber.\nEin wechselndes Kuchen Angebot, Vegan, gibt es auch \nWir wünschen einen guten Appetit\" ","price":"","city":"Kassel","website":"https://www.facebook.com/Bergschweinchen/","type":"Voll Vegan","hours":"Montags geschlossen \nDienstags 13:00–21:00 Uhr\nMittwochs 11:30–21:00 Uhr\nDonnerstags11:30–21:00 Uhr\nFreitags 11:30–22:00 Uhr\nSamstags 11:30–22:00 Uhr\nSonntags 12:00–20:00 Uhr","tags":["100% vegan,Bio","Regional und nachhaltig"]},{"lat":52.5161265,"lng":13.3881747,"name":"Cookies Cream","description":"\"Das Cookies Cream, 2007 gegründet von ‚Cookie‘ Heinz Gindullis, war der Pionier für vegetarisches Fine Dining in Berlin und ist mittlerweile zum international renommierten Hotspot der Hauptstadt avanciert. Mit Chefkoch Stephan Hentschel steht das Cookies Cream für experimentelle vegetarische Küche auf höchstem Niveau (16 Punkte bei Gault&amp;Millau für 2017) – die außergewöhnlichen und dennoch ehrlichen Kreationen vermitteln dem Gast ein völlig neuartiges Erlebnis von vegetarischer Küche.\"","price":"","city":"Berlin","website":"http://cookiescream.com/","type":"Vegan und Vegetarisch","hours":"Dienstag - Samstag von 18:30 Uhr","tags":["vegan und vegetarisch"]},{"lat":52.490101,"lng":13.4270280000001,"name":"HOLY FLAT!","description":"BEEINFLUSST VON EUROPÄISCHEN, \nARABISCHEN UND LATEINAMERIKANISCHEN \nKÜCHEN IST DIES DER ORT FÜR LIEBHABER \nVEGETARISCHER UND VEGANER GERICHTE!","price":"","city":"Berlin","website":"http://www.holy-flat.com/","type":"Vegan und Vegetarisch","hours":"MO-FR -- 11:30 - 21:00\nSA -- 12:30 - 22:00\nSO -- GESCHLOSSEN","tags":["vegan und vegetarisch"]},{"lat":52.5352042,"lng":13.4072874,"name":"Rou Vegetarian","description":"Vegetarisch vietnamesische Gerichte.","price":"","city":"Berlin","website":"http://www.vegi-rou.de/","type":"Vegan und Vegetarisch","hours":"Mo. - Fr. 12.00-23.00 Uhr\u0003\nSa. & So. 13.00-23.00 Uhr","tags":["vegan","vegetarisch"]},{"lat":52.506693,"lng":13.4687642,"name":"Vöner","description":"\"Veganer Imbiss in Berlin-Friedrichshain. Hier gibt's Vöner, Wagenburger, Bio-Pommes, Seitan-Nuggets und eine große Getränkeauswahl\"","price":"","city":"Berlin","website":"http://www.voener.de/","type":"Voll Vegan","hours":"Montag- Sonntag: 12:00 - 23:00 Uhr","tags":["vegan"]},{"lat":52.489866,"lng":13.38755,"name":"Der Vegetarische Metzger - Konzeptstore Berlin","description":"Imbiss und Verkauf von vegetarischen Fleischersatzprodukten. Von Curry-Wurst bis Kiezburger, Chilli-Pommes - alles mit dabei.","price":"€","city":"Berlin","website":"http://der-vegetarische-metzger.de/de/der-konzeptstore/","type":"Vegan und Vegetarisch","hours":"Mo-Sa: 11:30 Uhr – 22:00 Uhr\nSo: 13:00 Uhr – 20:00 Uhr","tags":["vegan und vegetarisch","weniger CO2"]},{"lat":47.554678,"lng":7.947533,"name":"Alnatura","description":"Alnatura ist ein Supermarkt, der ausschließlich Bio-Lebensmittel führt. Außerdem findet man vegane, regionale und fair hergestellte Produkte.","price":"","city":"","website":"","type":"Alnatura","hours":"","tags":[]},{"lat":52.37319,"lng":9.734597,"name":"Alnatura","description":"Alnatura ist ein Supermarkt, der ausschließlich Bio-Lebensmittel führt. Außerdem findet man vegane, regionale und fair hergestellte Produkte.","price":"","city":"","website":"","type":"Alnatura","hours":"","tags":[]},{"lat":50.126313,"lng":8.701885,"name":"Alnatura","description":"Alnatura ist ein Supermarkt, der ausschließlich Bio-Lebensmittel führt. Außerdem findet man vegane, regionale und fair hergestellte Produkte.","price":"","city":"","website":"","type":"Alnatura","hours":"","tags":[]},{"lat":50.731893,"lng":7.095993,"name":"Alnatura","description":"Alnatura ist ein Supermarkt, der ausschließlich Bio-Lebensmittel führt. Außerdem findet man vegane, regionale und fair hergestellte Produkte.","price":"","city":"","website":"","type":"Alnatura","hours":"","tags":[]},{"lat":48.766496,"lng":11.439119,"name":"Alnatura","description":"Alnatura ist ein Supermarkt, der ausschließlich Bio-Lebensmittel führt. Außerdem findet man vegane, regionale und fair hergestellte Produkte.","price":"","city":"","website":"","type":"Alnatura","hours":"","tags":[]},{"lat":48.739988,"lng":9.301364,"name":"Alnatura","description":"","price":"","city":"","website":"","type":"Alnatura","hours":"","tags":[]},{"lat":50.941429,"lng":6.935904,"name":"Alnatura","description":"","price":"","city":"","website":"","type":"Alnatura","hours":"","tags":[]},{"lat":47.997941,"lng":7.848497,"name":"Alnatura","description":"","price":"","city":"","website":"","type":"Alnatura","hours":"","tags":[]},{"lat":48.20325,"lng":11.587738,"name":"Alnatura","description":"","price":"","city":"","website":"","type":"Alnatura","hours":"","tags":[]},{"lat":50.182217,"lng":8.468074,"name":"Alnatura","description":"","price":"","city":"","website":"","type":"Alnatura","hours":"","tags":[]},{"lat":49.999248,"lng":8.26848,"name":"Alnatura","description":"","price":"","city":"","website":"","type":"Alnatura","hours":"","tags":[]},{"lat":48.060738,"lng":10.867857,"name":"Alnatura","description":"","price":"","city":"","website":"","type":"Alnatura","hours":"","tags":[]},{"lat":52.502245,"lng":13.30908,"name":"Alnatura","description":"","price":"","city":"","website":"","type":"Alnatura","hours":"","tags":[]},{"lat":52.510207,"lng":13.408008,"name":"Alnatura","description":"","price":"","city":"","website":"","type":"Alnatura","hours":"","tags":[]},{"lat":52.442574,"lng":13.293834,"name":"Alnatura","description":"","price":"","city":"","website":"","type":"Alnatura","hours":"","tags":[]},{"lat":50.100275,"lng":8.686623,"name":"Alnatura","description":"","price":"","city":"","website":"","type":"Alnatura","hours":"","tags":[]},{"lat":52.42819,"lng":13.325585,"name":"Alnatura","description":"","price":"","city":"","website":"","type":"Alnatura","hours":"","tags":[]},{"lat":50.100546,"lng":8.681491,"name":"Alnatura","description":"","price":"","city":"","website":"","type":"Alnatura","hours":"","tags":[]},{"lat":49.009101,"lng":8.39323,"name":"Alnatura","description":"","price":"","city":"","website":"","type":"Alnatura","hours":"","tags":[]},{"lat":52.389071,"lng":9.749007,"name":"Alnatura","description":"","price":"","city":"","website":"","type":"Alnatura","hours":"","tags":[]},{"lat":52.361431,"lng":9.764335,"name":"Alnatura","description":"","price":"","city":"","website":"","type":"Alnatura","hours":"","tags":[]},{"lat":48.100058,"lng":11.528045,"name":"Alnatura","description":"","price":"","city":"","website":"","type":"Alnatura","hours":"","tags":[]},{"lat":50.121162,"lng":8.648369,"name":"Alnatura","description":"","price":"","city":"","website":"","type":"Alnatura","hours":"","tags":[]},{"lat":52.415233,"lng":13.145111,"name":"Alnatura","description":"","price":"","city":"","website":"","type":"Alnatura","hours":"","tags":[]},{"lat":53.556829,"lng":9.928446,"name":"Alnatura","description":"","price":"","city":"","website":"","type":"Alnatura","hours":"","tags":[]},{"lat":51.243361,"lng":6.85071,"name":"Alnatura","description":"","price":"","city":"","website":"","type":"Alnatura","hours":"","tags":[]},{"lat":52.591372,"lng":13.286367,"name":"Alantura","description":"","price":"","city":"","website":"","type":"Alnatura","hours":"","tags":[]},{"lat":52.500058,"lng":13.354659,"name":"Alnatura","description":"","price":"","city":"","website":"","type":"Alnatura","hours":"","tags":[]},{"lat":49.851457,"lng":8.645653,"name":"Alnatura","description":"","price":"","city":"","website":"","type":"Alnatura","hours":"","tags":[]},{"lat":49.870438,"lng":8.649552,"name":"Alnatura","description":"","price":"","city":"","website":"","type":"Alnatura","hours":"","tags":[]},{"lat":51.046544,"lng":13.757685,"name":"Alnatura","description":"","price":"","city":"","website":"","type":"Alnatura","hours":"","tags":[]},{"lat":50.918559,"lng":6.925302,"name":"Alnatura","description":"","price":"","city":"","website":"","type":"Alnatura","hours":"","tags":[]},{"lat":47.661082,"lng":9.176365,"name":"Alnatura","description":"","price":"","city":"","website":"","type":"Alnatura","hours":"","tags":[]},{"lat":48.135678,"lng":11.565643,"name":"Alnatura","description":"","price":"","city":"","website":"","type":"Alnatura","hours":"","tags":[]},{"lat":47.974885,"lng":7.828903,"name":"Alnatura","description":"","price":"","city":"","website":"","type":"Alnatura","hours":"","tags":[]},{"lat":47.551297,"lng":7.665672,"name":"Alnatura","description":"","price":"","city":"","website":"","type":"Alnatura","hours":"","tags":[]},{"lat":48.938756,"lng":8.412158,"name":"Alnatura","description":"","price":"","city":"","website":"","type":"Alnatura","hours":"","tags":[]},{"lat":48.145857,"lng":11.519438,"name":"Alnatura","description":"","price":"","city":"","website":"","type":"Alnatura","hours":"","tags":[]},{"lat":47.99092,"lng":7.848174,"name":"Alnatura","description":"","price":"","city":"","website":"","type":"Alnatura","hours":"","tags":[]},{"lat":50.760578,"lng":6.093027,"name":"Alnatura","description":"","price":"","city":"","website":"","type":"Alnatura","hours":"","tags":[]},{"lat":48.162661,"lng":11.730201,"name":"Alnatura","description":"","price":"","city":"","website":"","type":"Alnatura","hours":"","tags":[]},{"lat":50.115598,"lng":8.669189,"name":"Alnatura","description":"","price":"","city":"","website":"","type":"Alnatura","hours":"","tags":[]},{"lat":49.007864,"lng":8.439074,"name":"Alnatura","description":"","price":"","city":"","website":"","type":"Alnatura","hours":"","tags":[]},{"lat":48.131931,"lng":11.56403,"name":"Alnatura","description":"","price":"","city":"","website":"","type":"Alnatura","hours":"","tags":[]},{"lat":48.128485,"lng":11.594484,"name":"Alnatura","description":"","price":"","city":"","website":"","type":"Alnatura","hours":"","tags":[]},{"lat":53.072454,"lng":8.827632,"name":"Alnatura","description":"","price":"","city":"","website":"","type":"Alnatura","hours":"","tags":[]},{"lat":49.401703,"lng":8.691548,"name":"Alnatura","description":"","price":"","city":"","website":"","type":"Alnatura","hours":"","tags":[]},{"lat":52.569773,"lng":13.329989,"name":"Alnatura","description":"","price":"","city":"","website":"","type":"Alnatura","hours":"","tags":[]},{"lat":49.744154,"lng":8.606816,"name":"Alnatura","description":"","price":"","city":"","website":"","type":"Alnatura","hours":"","tags":[]},{"lat":49.407756,"lng":8.688423,"name":"Alnatura","description":"","price":"","city":"","website":"","type":"Alnatura","hours":"","tags":[]},{"lat":50.907879,"lng":6.971278,"name":"Alnatura","description":"","price":"","city":"","website":"","type":"Alnatura","hours":"","tags":[]},{"lat":50.122494,"lng":8.676037,"name":"Alnatura","description":"","price":"","city":"","website":"","type":"Alnatura","hours":"","tags":[]},{"lat":51.174425,"lng":6.391875,"name":"Alnatura","description":"","price":"","city":"","website":"","type":"Alnatura","hours":"","tags":[]},{"lat":52.543079,"lng":13.441622,"name":"Alnatura","description":"","price":"","city":"","website":"","type":"Alnatura","hours":"","tags":[]},{"lat":49.744154,"lng":8.606816,"name":"Alnatura","description":"","price":"","city":"","website":"","type":"Alnatura","hours":"","tags":[]},{"lat":53.081054,"lng":8.796355,"name":"Alnatura","description":"","price":"","city":"","website":"","type":"Alnatura","hours":"","tags":[]},{"lat":53.570402,"lng":10.061242,"name":"Alnatura","description":"","price":"","city":"","website":"","type":"Alnatura","hours":"","tags":[]},{"lat":50.739601,"lng":7.12174,"name":"Alnatura","description":"","price":"","city":"","website":"","type":"Alnatura","hours":"","tags":[]},{"lat":48.094036,"lng":11.508275,"name":"Alnatura","description":"","price":"","city":"","website":"","type":"Alnatura","hours":"","tags":[]},{"lat":52.511074,"lng":13.389563,"name":"Alnatura","description":"","price":"","city":"","website":"","type":"Alnatura","hours":"","tags":[]},{"lat":52.455281,"lng":13.625564,"name":"Alnatura","description":"","price":"","city":"","website":"","type":"Alnatura","hours":"","tags":[]},{"lat":48.89347,"lng":9.187164,"name":"Alnatura","description":"","price":"","city":"","website":"","type":"Alnatura","hours":"","tags":[]},{"lat":53.579684,"lng":9.975076,"name":"Alnatura","description":"","price":"","city":"","website":"","type":"Alnatura","hours":"","tags":[]},{"lat":48.162562,"lng":11.586713,"name":"Alnatura","description":"","price":"","city":"","website":"","type":"Alnatura","hours":"","tags":[]},{"lat":48.152862,"lng":11.53448,"name":"Alnatura","description":"","price":"","city":"","website":"","type":"Alnatura","hours":"","tags":[]},{"lat":50.77347,"lng":6.07645,"name":"Alnatura","description":"","price":"","city":"","website":"","type":"Alnatura","hours":"","tags":[]},{"lat":48.65931,"lng":9.201473,"name":"Alnatura","description":"","price":"","city":"","website":"","type":"Alnatura","hours":"","tags":[]},{"lat":53.582353,"lng":9.755615,"name":"Alnatura","description":"","price":"","city":"","website":"","type":"Alnatura","hours":"","tags":[]},{"lat":50.381836,"lng":7.577575,"name":"Alnatura","description":"","price":"","city":"","website":"","type":"Alnatura","hours":"","tags":[]},{"lat":50.964329,"lng":6.953978,"name":"Alnatura","description":"","price":"","city":"","website":"","type":"Alnatura","hours":"","tags":[]},{"lat":49.674992,"lng":8.616493,"name":"Alnatura","description":"","price":"","city":"","website":"","type":"Alnatura","hours":"","tags":[]},{"lat":50.08174,"lng":8.456248,"name":"Alnatura","description":"","price":"","city":"","website":"","type":"Alnatura","hours":"","tags":[]},{"lat":51.531852,"lng":9.938209,"name":"Alnatura","description":"","price":"","city":"","website":"","type":"Alnatura","hours":"","tags":[]},{"lat":53.560765,"lng":9.965484,"name":"Alnatura","description":"","price":"","city":"","website":"","type":"Alnatura","hours":"","tags":[]},{"lat":53.552838,"lng":9.933231,"name":"Alnatura","description":"","price":"","city":"","website":"","type":"Alnatura","hours":"","tags":[]},{"lat":52.551523,"lng":13.413721,"name":"Alnatura","description":"","price":"","city":"","website":"","type":"Alnatura","hours":"","tags":[]},{"lat":48.15976,"lng":11.585976,"name":"Alnatura","description":"","price":"","city":"","website":"","type":"Alnatura","hours":"","tags":[]},{"lat":52.489037,"lng":13.397658,"name":"Alnatura","description":"","price":"","city":"","website":"","type":"Alnatura","hours":"","tags":[]},{"lat":48.146651,"lng":11.463769,"name":"Alnatura","description":"","price":"","city":"","website":"","type":"Alnatura","hours":"","tags":[]},{"lat":49.483415,"lng":8.472905,"name":"Alnatura","description":"","price":"","city":"","website":"","type":"Alnatura","hours":"","tags":[]},{"lat":49.872174,"lng":8.645539,"name":"Alnatura","description":"","price":"","city":"","website":"","type":"Alnatura","hours":"","tags":[]},{"lat":49.004027,"lng":8.41929,"name":"Alnatura","description":"","price":"","city":"","website":"","type":"Alnatura","hours":"","tags":[]},{"lat":52.509685,"lng":13.305497,"name":"Alnatura","description":"","price":"","city":"","website":"","type":"Alnatura","hours":"","tags":[]},{"lat":48.106274,"lng":11.645918,"name":"Alnatura","description":"","price":"","city":"","website":"","type":"Alnatura","hours":"","tags":[]},{"lat":47.987677,"lng":7.870872,"name":"Alantura","description":"","price":"","city":"","website":"","type":"Alnatura","hours":"","tags":[]},{"lat":49.43591,"lng":7.754881,"name":"Alnatura","description":"","price":"","city":"","website":"","type":"Alnatura","hours":"","tags":[]},{"lat":49.485743,"lng":8.464032,"name":"basic Bio-Supermarkt Mannheim","description":"basic ist ein Supermarkt der ausschließlich Bio-Lebensmittel führt. Außerdem findet man vegane, regionale und fair hergestellte Produkte. ","price":"","city":"Mannheim","website":"www.basicbio.de","type":"basic","hours":"Mo - Sa: 8:00 - 20:00 Uhr","tags":["bio","regional","fair","unter anderem vegan"]},{"lat":50.772676,"lng":6.087772,"name":"basic Bio-Supermarkt Aachen","description":"basic ist ein Supermarkt, der ausschließlich Bio-Lebensmittel führt. Außerdem findet man vegane, regionale und fair hergestellte Produkte.","price":"","city":"Aachen","website":"www.basicbio.de","type":"basic","hours":"Mo. - Sa.: 8.00- 20.00 Uhr","tags":["bio","regional","fair","unter anderem vegan"]},{"lat":50.770356,"lng":6.074935,"name":"Bio-Supermarkt Vital Aachen","description":"","price":"","city":"Aachen","website":"","type":"Bioladen\n","hours":"Mo.- Fr.: 7.30- 19.30 Uhr\nSa.: 7.30- 14.00 Uhr","tags":[]},{"lat":50.771581,"lng":6.084183,"name":"denn's Biomarkt Aachen","description":"denn's Biomarkt ist ein Supermarkt, der ausschließlich Bio-Lebensmittel führt. Außerdem findet man vegane, regionale und fair hergestellte Produkte.","price":"","city":"Aachen","website":"www.denns-biomarkt.de","type":"denn's","hours":"Mo.- Sa.: 8.00- 20.00 Uhr","tags":["bio","regional","fair","unter anderem vegan"]},{"lat":49.2020145,"lng":9.50365290000002,"name":"BioMARKT Roland Geist GmbH Öhringen","description":"Der BioMARKT ist mit 500 qm Verkaufsfläche und über 5000 verschiedenen Produkten einer der großen Bio-Märkte in der Region. ","price":"","city":"Öhringen","website":"www.biomarkt-geist.de","type":"Bioladen","hours":"Mo.-Fr. 9:00 bis 19.00 Uhr,\nSa 8.30 bis 16 Uhr","tags":["bio","regional","fair\n"]},{"lat":49.3537661,"lng":8.13926089999995,"name":"Abraxas Naturkostladen","description":"Abraxas bietet auf 230qm ein breites und tiefes Naturkostsortiment mit über 3000 Artikeln. Außerdem ein großes Naturkosmetiksortiment und Naturtextilien.","price":"","city":"Neustadt an der Weinstraße","website":"http://www.biomarkt.de/6551_Abraxas_Naturkost_GmbH.html","type":"Bioladen","hours":"Mo-Fr 9:00-19:00\nSa 8:00-16:00","tags":["bio","Naturkosmetik\n"]},{"lat":53.5514948,"lng":9.9322475,"name":"Stückgut Hamburg","description":"unverpackt einkaufen in Hamburg\n","price":"€","city":"Hamburg","website":"http://www.stueckgut-hamburg.de/","type":"Verpackungsfrei","hours":"Montag bis Freitag 10:00 bis 19:00\nSonnabend 11:00 bis 17:00\n","tags":["Müll reduzieren\n"]},{"lat":50.912,"lng":6.91858999999999,"name":"Tante Olga Köln","description":"unverpackt einkaufen in Köln\n","price":"","city":"Köln","website":"www.tante-olga.de","type":"Verpackungsfrei","hours":"Di-Fr: 11:00-19:00 Uhr; Sa: 10-15 Uhr\n","tags":["Müllreduzierung","bio-zertifiziert\n"]},{"lat":52.489342,"lng":13.3949887,"name":"Veganz Berlin","description":"vegan einkaufen. Alle Produkte, die von Veganz angeboten werden sind vegan. Manche Produkte sind außerdem bio-zertifiziert, regional und fair. \n","price":"","city":"Berlin","website":"https://veganz.de/","type":"Vegan","hours":"Mo - Fr: 8-20 Uhr\nSa: 8-18 Uhr","tags":["vegan","tw. bio-zertifiziert","regional und fair\n"]},{"lat":52.5077358,"lng":13.4499747,"name":"Veganz Berlin-Friedrichshain","description":"vegan einkaufen. Alle Produkte, die von Veganz angeboten werden sind vegan. Manche Produkte sind außerdem bio-zertifiziert, regional und fair. ","price":"","city":"Berlin","website":"https://veganz.de","type":"Vegan","hours":"Mo-Sa: 09-22 Uhr","tags":["vegan","tw. bio-zertifiziert","fair und regional"]},{"lat":52.5508746,"lng":13.4084074,"name":"Veganz Berlin Prenzlauer Berg\n","description":"vegan einkaufen. Alle Produkte, die von Veganz angeboten werden sind vegan. Manche Produkte sind außerdem bio-zertifiziert, regional und fair. ","price":"","city":"Berlin","website":"https://veganz.de","type":"Vegan","hours":"Mo-Fr: 08-21 Uhr\nSa: 08-21 Uhr","tags":["vegan","tw. bio-zertifiziert","fair und regional"]},{"lat":48.1951747,"lng":16.3629981,"name":"Veganz Wien","description":"vegan einkaufen. Alle Produkte, die von Veganz angeboten werden sind vegan. Manche Produkte sind außerdem bio-zertifiziert, regional und fair. ","price":"","city":"Wien","website":"https://veganz.de","type":"Vegan","hours":"Mo-Fr: 08-20 Uhr\nSa: 08-18 Uhr","tags":["vegan","tw. bio-zertifiziert","fair und regional"]},{"lat":50.0770203,"lng":14.4409502999999,"name":"Veganz Prag","description":"vegan einkaufen. Alle Produkte, die von Veganz angeboten werden sind vegan. Manche Produkte sind außerdem bio-zertifiziert, regional und fair. ","price":"","city":"Prag","website":"https://veganz.de","type":"Vegan","hours":"Mo: 11-20 Uhr\nDi-Fr: 08-20 Uhr","tags":["vegan","tw. bio-zertifiziert","fair und regional"]},{"lat":48.150794,"lng":11.5746839999999,"name":"OHNE der verpackungsfreie Supermarkt München","description":"Münchens erster verpackungsfreier Laden. \"Unser Konzept baut auf der Philosophie von Zero Waste auf. Zero Waste (zu deutsch Null Müll) ist der stetige Versuch auf einen Alltag ohne Restmüll hinzuarbeiten. Im Idealfall bleiben am Ende nur noch Kompost und mögliche Recyclingabfälle wie Papier oder Glas übrig. Wir versuchen sowohl unseren Kunden den Müll als Endverbrauchern zu ersparen als auch als Einzelhandel neue Wege zu gehen.\"","price":"","city":"München","website":"http://www.ohne-laden.de/","type":"Verpackungsfrei","hours":"Öffnungszeiten:\nMo.-Fr. 9:30 - 19:00\nSa. 9:30- 18:00","tags":["Plastikreduzierung"]},{"lat":49.8018808,"lng":9.94580289999999,"name":"Vom Land Würzburg","description":"\"Vom Land ist kein Supermarkt mit Bio-Vollsortiment. Hier gibt es ausschließlich liebevoll ausgewählte saisonale Lebensmittel, die in der Region erzeugt werden. Region bedeutet für mich Mainfranken, Tauberfranken sowie die Rhön. Um einen Eindruck von der Produktion vor Ort zu bekommen, werden die landwirtschaftlichen Betriebe und Erzeuger persönlich besucht. Erst danach kommen die Lebensmittel ins vom Land-Sortiment.\"","price":"","city":"Würzburg","website":"http://www.vom-land.eu/Home/","type":"Regional\n","hours":"Mittwoch: 9.30 - 18.30\nDonnerstag: 9.30 - 18.30\nFreitag: 9.30 - 18.30\nSamstag: 9.30 - 14.00","tags":[]},{"lat":48.738251,"lng":9.28246809999996,"name":"Weiler Hof\n","description":"\"Frische schnell zu Hause\" - Auch Lieferservice\n","price":"","city":"","website":"https://www.weilerhofladen.de/","type":"Regional","hours":"Di, Do \t09.00 bis 12.30 Uhr und 14.00 bis 18.30 Uhr\nFr \t09.00 bis 18.30 Uhr\nSa \t09.00 bis 13.00 Uhr ","tags":[]},{"lat":48.8315693,"lng":10.0828425,"name":"denn's Biomarkt Aalen","description":"denn's Biomarkt ist ein Supermarkt, der ausschließlich Bio-Lebensmittel führt. Außerdem findet man vegane, regionale und fair hergestellte Produkte.","price":"","city":"Aalen","website":"www.denns-biomarkt.de","type":"denn's","hours":"Mo - Sa 08:00 - 20:00 Uhr","tags":["bio","regional","fair","unter anderem vegan"]},{"lat":49.31345,"lng":10.56943,"name":"denn's Biomarkt Ansbach","description":"denn's Biomarkt ist ein Supermarkt, der ausschließlich Bio-Lebensmittel führt. Außerdem findet man vegane, regionale und fair hergestellte Produkte.","price":"","city":"Ansbach","website":"www.denns-biomarkt.de","type":"denn's","hours":"Mo - Sa 08:00 - 20:00 Uhr","tags":["bio","regional","fair","unter anderem vegan"]},{"lat":49.9820868,"lng":9.14173640000001,"name":"denn's Biomarkt Aschaffenburg","description":"denn's Biomarkt ist ein Supermarkt, der ausschließlich Bio-Lebensmittel führt. Außerdem findet man vegane, regionale und fair hergestellte Produkte.","price":"","city":"Aschaffenburg","website":"www.denns-biomarkt.de","type":"denn's\n","hours":"Mo - Sa 08:00 - 20:00 Uhr","tags":["bio","regional","fair","unter anderem vegan"]},{"lat":48.3556777,"lng":10.9518783999999,"name":"denn's Biomarkt Augsburg","description":"denn's Biomarkt ist ein Supermarkt, der ausschließlich Bio-Lebensmittel führt. Außerdem findet man vegane, regionale und fair hergestellte Produkte.","price":"","city":"Augsburg","website":"www.denns-biomarkt.de","type":"denn's","hours":"Mo - Sa 08:00 - 20:00 Uhr","tags":["bio","regional","fair","unter anderem vegan"]},{"lat":48.9468586,"lng":9.43393330000004,"name":"denn's Biomarkt Backnang","description":"denn's Biomarkt ist ein Supermarkt, der ausschließlich Bio-Lebensmittel führt. Außerdem findet man vegane, regionale und fair hergestellte Produkte.","price":"","city":"Backnang","website":"www.denns-biomarkt.de","type":"denn's\n","hours":"Mo - Fr 08:00 - 20:00 Uhr\nSa: 08:00 - 18:00 Uhr","tags":["bio","regional","fair","unter anderem vegan"]},{"lat":48.0327,"lng":8.53313000000003,"name":"denn's Biomarkt Bad Dürrheim","description":"denn's Biomarkt ist ein Supermarkt, der ausschließlich Bio-Lebensmittel führt. Außerdem findet man vegane, regionale und fair hergestellte Produkte.","price":"","city":"Bad Dürrheim","website":"www.denns-biomarkt.de","type":"denn's","hours":"Mo - Sa 08:00 - 20:00 Uhr","tags":["bio","regional","fair","unter anderem vegan\n"]},{"lat":49.8509934,"lng":7.89096919999997,"name":"denn's Biomarkt Bad Kreuznach ","description":"denn's Biomarkt ist ein Supermarkt, der ausschließlich Bio-Lebensmittel führt. Außerdem findet man vegane, regionale und fair hergestellte Produkte.","price":"","city":"Bad Kreuznach","website":"www.denns-biomarkt.de","type":"denn's","hours":"Mo - Sa 08:00 - 20:00 Uhr","tags":["bio","regional","fair","unter anderem vegan"]},{"lat":53.81136,"lng":10.37815,"name":"denn's Biomarkt Bad Oldesloe","description":"denn's Biomarkt ist ein Supermarkt, der ausschließlich Bio-Lebensmittel führt. Außerdem findet man vegane, regionale und fair hergestellte Produkte.","price":"","city":"Bad Oldesloe","website":"www.denns-biomarkt.de","type":"denn's","hours":"Mo - Sa 08:00 - 20:00 Uhr","tags":["bio","regional","fair","unter anderem vegan"]},{"lat":49.8968764,"lng":10.8937075,"name":"denn's Biomarkt Bamberg","description":"denn's Biomarkt ist ein Supermarkt, der ausschließlich Bio-Lebensmittel führt. Außerdem findet man vegane, regionale und fair hergestellte Produkte.","price":"","city":"Bamberg","website":"www.denns-biomarkt.de\n","type":"denn's","hours":"Mo - Fr 08:00 - 20:00 Uhr\nSa: 08:00 - 19:00 Uhr","tags":["bio","regional","fair","unter anderem vegan"]},{"lat":49.9545341,"lng":11.5977207999999,"name":"denn's Biomarkt Bayreuth","description":"denn's Biomarkt ist ein Supermarkt, der ausschließlich Bio-Lebensmittel führt. Außerdem findet man vegane, regionale und fair hergestellte Produkte.","price":"","city":"Bayreuth","website":"www.denns-biomarkt.de","type":"denn's","hours":"Mo - Fr 08:00 - 20:00 Uhr\nSa: 08:00 - 18:00 Uhr","tags":["bio","regional","fair","unter anderem vegan"]},{"lat":50.9844541,"lng":7.12034859999994,"name":"denn's Biomarkt Bergisch Gladbach","description":"denn's Biomarkt ist ein Supermarkt, der ausschließlich Bio-Lebensmittel führt. Außerdem findet man vegane, regionale und fair hergestellte Produkte.","price":"","city":"Bergisch Gladbach","website":"www.denns-biomarkt.de","type":"denn's","hours":"Mo - Sa 08:00 - 20:00 Uhr","tags":["bio","regional","fair","unter anderem vegan"]},{"lat":52.420156,"lng":13.4920036,"name":"denn's Biomarkt Berlin","description":"denn's Biomarkt ist ein Supermarkt, der ausschließlich Bio-Lebensmittel führt. Außerdem findet man vegane, regionale und fair hergestellte Produkte.","price":"","city":"Berlin","website":"www.denns-biomarkt.de","type":"denn's","hours":"Mo - Sa 08:00 - 20:00 Uhr\n","tags":["bio","regional","fair","unter anderem vegan"]},{"lat":52.5847843,"lng":13.2853638,"name":"denn's Biomarkt Berlin","description":"denn's Biomarkt ist ein Supermarkt, der ausschließlich Bio-Lebensmittel führt. Außerdem findet man vegane, regionale und fair hergestellte Produkte.","price":"","city":"Berlin","website":"www.denns-biomarkt.de","type":"denn's","hours":"Mo - Sa 09:00 - 21:00 Uhr","tags":["bio","regional","fair","unter anderem vegan"]},{"lat":52.458131,"lng":13.578588,"name":"denn's Biomarkt Berlin","description":"denn's Biomarkt ist ein Supermarkt, der ausschließlich Bio-Lebensmittel führt. Außerdem findet man vegane, regionale und fair hergestellte Produkte.","price":"","city":"Berlin","website":"www.denns-biomarkt.de\n","type":"denn's","hours":"Mo - Sa 08:00 - 20:00 Uhr","tags":["bio","regional","fair","unter anderem vegan"]},{"lat":52.5402742,"lng":13.4041964,"name":"denn's Biomarkt Berlin","description":"denn's Biomarkt ist ein Supermarkt, der ausschließlich Bio-Lebensmittel führt. Außerdem findet man vegane, regionale und fair hergestellte Produkte.","price":"","city":"Berlin","website":"www.denns-biomarkt.de","type":"denn's","hours":"Mo - Sa 09:00 - 22:00 Uhr","tags":["bio","regional","fair","unter anderem vegan"]},{"lat":52.5473238,"lng":13.4509582000001,"name":"denn's Biomarkt Berlin","description":"denn's Biomarkt ist ein Supermarkt, der ausschließlich Bio-Lebensmittel führt. Außerdem findet man vegane, regionale und fair hergestellte Produkte.","price":"","city":"Berlin","website":"www.denns-biomarkt.de","type":"denn's","hours":"Mo - Sa 08:00 - 21:00 Uhr","tags":["bio","regional","fair","unter anderem vegan"]},{"lat":52.5125894,"lng":13.4598559,"name":"denn's Biomarkt Berlin","description":"denn's Biomarkt ist ein Supermarkt, der ausschließlich Bio-Lebensmittel führt. Außerdem findet man vegane, regionale und fair hergestellte Produkte.","price":"","city":"Berlin","website":"www.denns-biomarkt.de","type":"denn's\n","hours":"Mo - Sa 08:00 - 21:00 Uhr","tags":["bio","regional","fair","unter anderem vegan"]},{"lat":52.417879,"lng":13.1472229999999,"name":"denn's Biomarkt Berlin","description":"denn's Biomarkt ist ein Supermarkt, der ausschließlich Bio-Lebensmittel führt. Außerdem findet man vegane, regionale und fair hergestellte Produkte.","price":"","city":"Berlin","website":"www.denns-biomarkt.de","type":"denn's","hours":"Mo - Sa 08:00 - 20:00 Uhr","tags":["bio","regional","fair","unter anderem vegan"]},{"lat":52.4513403,"lng":13.2702378,"name":"denn's Biomarkt Berlin","description":"denn's Biomarkt ist ein Supermarkt, der ausschließlich Bio-Lebensmittel führt. Außerdem findet man vegane, regionale und fair hergestellte Produkte.","price":"","city":"Berlin","website":"www.denns-biomarkt.de","type":"denn's","hours":"Mo - Sa 08:00 - 20:00 Uhr","tags":["bio","regional","fair","unter anderem vegan"]},{"lat":52.5391819,"lng":13.4252558000001,"name":"denn's Biomarkt Berlin","description":"denn's Biomarkt ist ein Supermarkt, der ausschließlich Bio-Lebensmittel führt. Außerdem findet man vegane, regionale und fair hergestellte Produkte.","price":"","city":"Berlin","website":"www.denns-biomarkt.de","type":"denn's","hours":"Mo - Sa 08:00 - 21:00 Uhr","tags":["bio","regional","fair","unter anderem vegan"]},{"lat":52.4824209,"lng":13.5243224,"name":"denn's Biomarkt Berlin","description":"denn's Biomarkt ist ein Supermarkt, der ausschließlich Bio-Lebensmittel führt. Außerdem findet man vegane, regionale und fair hergestellte Produkte.","price":"","city":"Berlin","website":"www.denns-biomarkt.de","type":"denn's","hours":"Mo - Sa 08:00 - 20:00 Uhr","tags":["bio","regional","fair","unter anderem vegan"]},{"lat":52.43531,"lng":13.54197,"name":"denn's Biomarkt Berlin","description":"denn's Biomarkt ist ein Supermarkt, der ausschließlich Bio-Lebensmittel führt. Außerdem findet man vegane, regionale und fair hergestellte Produkte.","price":"","city":"Berlin","website":"www.denns-biomarkt.de","type":"denn's","hours":"Mo - Sa 08:00 - 21:00 Uhr","tags":["bio","regional","fair","unter anderem vegan"]},{"lat":52.5325849,"lng":13.4293812999999,"name":"denn's Biomarkt Berlin","description":"denn's Biomarkt ist ein Supermarkt, der ausschließlich Bio-Lebensmittel führt. Außerdem findet man vegane, regionale und fair hergestellte Produkte.","price":"","city":"Berlin","website":"www.denns-biomarkt.de","type":"denn's","hours":"Mo - Sa 08:00 - 21:00 Uhr","tags":["bio","regional","fair","unter anderem vegan"]},{"lat":52.5050721,"lng":13.3234452,"name":"denn's Biomarkt Berlin","description":"denn's Biomarkt ist ein Supermarkt, der ausschließlich Bio-Lebensmittel führt. Außerdem findet man vegane, regionale und fair hergestellte Produkte.","price":"","city":"Berlin","website":"www.denns-biomarkt.de","type":"denn's","hours":"Mo - Sa 08:00 - 21:00 Uhr","tags":["bio","regional","fair","unter anderem vegan"]},{"lat":52.5486167,"lng":13.3889813000001,"name":"denn's Biomarkt Berlin","description":"denn's Biomarkt ist ein Supermarkt, der ausschließlich Bio-Lebensmittel führt. Außerdem findet man vegane, regionale und fair hergestellte Produkte.","price":"","city":"Berlin","website":"www.denns-biomarkt.de","type":"denn's","hours":"Mo - Sa 08:00 - 21:00 Uhr","tags":["bio","regional","fair","unter anderem vegan"]},{"lat":52.48624,"lng":13.4217599999999,"name":"denn's Biomarkt Berlin","description":"denn's Biomarkt ist ein Supermarkt, der ausschließlich Bio-Lebensmittel führt. Außerdem findet man vegane, regionale und fair hergestellte Produkte.","price":"","city":"Berlin","website":"www.denns-biomarkt.de","type":"denn's","hours":"Mo - Sa 08:00 - 21:00 Uhr","tags":["bio","regional","fair","unter anderem vegan"]},{"lat":52.488534,"lng":13.358147,"name":"denn's Biomarkt Berlin","description":"denn's Biomarkt ist ein Supermarkt, der ausschließlich Bio-Lebensmittel führt. Außerdem findet man vegane, regionale und fair hergestellte Produkte.","price":"","city":"Berlin","website":"www.denns-biomarkt.de","type":"denn's","hours":"Mo - Sa 08:00 - 21:00 Uhr","tags":["bio","regional","fair","unter anderem vegan"]},{"lat":52.51044,"lng":13.293185,"name":"denn's Biomarkt Berlin","description":"denn's Biomarkt ist ein Supermarkt, der ausschließlich Bio-Lebensmittel führt. Außerdem findet man vegane, regionale und fair hergestellte Produkte.","price":"","city":"Berlin","website":"www.denns-biomarkt.de","type":"denn's","hours":"Mo - Sa 08:00 - 20:00 Uhr","tags":["bio","regional","fair","unter anderem vegan"]},{"lat":52.468468,"lng":13.441389,"name":"denn's Biomarkt Berlin","description":"denn's Biomarkt ist ein Supermarkt, der ausschließlich Bio-Lebensmittel führt. Außerdem findet man vegane, regionale und fair hergestellte Produkte.","price":"","city":"Berlin","website":"www.denns-biomarkt.de","type":"denn's","hours":"Mo - Sa 08:00 - 21:00 Uhr","tags":["bio","regional","fair","unter anderem vegan"]},{"lat":52.534014,"lng":13.1959743,"name":"denn's Biomarkt Berlin","description":"denn's Biomarkt ist ein Supermarkt, der ausschließlich Bio-Lebensmittel führt. Außerdem findet man vegane, regionale und fair hergestellte Produkte.","price":"","city":"Berlin","website":"www.denns-biomarkt.de","type":"denn's","hours":"Mo - Sa 08:00 - 21:00 Uhr","tags":["bio","regional","fair","unter anderem vegan"]},{"lat":52.41565,"lng":13.40392,"name":"denn's Biomarkt Berlin","description":"denn's Biomarkt ist ein Supermarkt, der ausschließlich Bio-Lebensmittel führt. Außerdem findet man vegane, regionale und fair hergestellte Produkte.","price":"","city":"Berlin","website":"www.denns-biomarkt.de","type":"denn's","hours":"Mo - Sa 08:00 - 20:00 Uhr","tags":["bio","regional","fair","unter anderem vegan"]},{"lat":52.5201813,"lng":13.4513574,"name":"denn's Biomarkt Berlin","description":"denn's Biomarkt ist ein Supermarkt, der ausschließlich Bio-Lebensmittel führt. Außerdem findet man vegane, regionale und fair hergestellte Produkte.","price":"","city":"Berlin","website":"www.denns-biomarkt.de","type":"denn's","hours":"Mo - Sa 08:00 - 21:00 Uhr","tags":["bio","regional","fair","unter anderem vegan"]},{"lat":52.6111152,"lng":13.3179834,"name":"denn's Biomarkt Berlin","description":"denn's Biomarkt ist ein Supermarkt, der ausschließlich Bio-Lebensmittel führt. Außerdem findet man vegane, regionale und fair hergestellte Produkte.","price":"","city":"Berlin","website":"www.denns-biomarkt.de","type":"denn's","hours":"Mo - Sa 08:00 - 20:00 Uhr","tags":["bio","regional","fair","unter anderem vegan"]},{"lat":52.5521393,"lng":13.4299129999999,"name":"denn's Biomarkt Berlin","description":"denn's Biomarkt ist ein Supermarkt, der ausschließlich Bio-Lebensmittel führt. Außerdem findet man vegane, regionale und fair hergestellte Produkte.","price":"","city":"Berlin","website":"www.denns-biomarkt.de","type":"denn's","hours":"Mo - Sa 08:00 - 21:00 Uhr","tags":["bio","regional","fair","unter anderem vegan"]},{"lat":52.4700475,"lng":13.3341617,"name":"denn's Biomarkt Berlin","description":"denn's Biomarkt ist ein Supermarkt, der ausschließlich Bio-Lebensmittel führt. Außerdem findet man vegane, regionale und fair hergestellte Produkte.","price":"","city":"Berlin","website":"www.denns-biomarkt.de","type":"denn's","hours":"Mo - Sa 08:00 - 21:00 Uhr","tags":["bio","regional","fair","unter anderem vegan"]},{"lat":52.6074299,"lng":13.4288664000001,"name":"denn's Biomarkt Berlin","description":"denn's Biomarkt ist ein Supermarkt, der ausschließlich Bio-Lebensmittel führt. Außerdem findet man vegane, regionale und fair hergestellte Produkte.","price":"","city":"Berlin","website":"www.denns-biomarkt.de","type":"denn's","hours":"Mo - Sa 08:00 - 20:00 Uhr","tags":["bio","regional","fair","unter anderem vegan"]},{"lat":52.613828,"lng":13.245358,"name":"denn's Biomarkt Berlin","description":"denn's Biomarkt ist ein Supermarkt, der ausschließlich Bio-Lebensmittel führt. Außerdem findet man vegane, regionale und fair hergestellte Produkte.","price":"","city":"Berlin","website":"www.denns-biomarkt.de","type":"denn's","hours":"Mo - Sa 08:00 - 20:00 Uhr","tags":["bio","regional","fair","unter anderem vegan"]},{"lat":52.540686,"lng":13.4163403,"name":"denn's Biomarkt Berlin","description":"denn's Biomarkt ist ein Supermarkt, der ausschließlich Bio-Lebensmittel führt. Außerdem findet man vegane, regionale und fair hergestellte Produkte.","price":"","city":"Berlin","website":"www.denns-biomarkt.de","type":"denn's","hours":"Mo - Sa 08:00 - 21:00 Uhr","tags":["bio","regional","fair","unter anderem vegan"]},{"lat":52.5492778,"lng":13.415621,"name":"denn's Biomarkt Berlin","description":"denn's Biomarkt ist ein Supermarkt, der ausschließlich Bio-Lebensmittel führt. Außerdem findet man vegane, regionale und fair hergestellte Produkte.","price":"","city":"Berlin","website":"www.denns-biomarkt.de","type":"denn's","hours":"Mo - Sa 08:00 - 21:00 Uhr","tags":["bio","regional","fair","unter anderem vegan"]},{"lat":52.5303041,"lng":13.4111685,"name":"denn's Biomarkt Berlin","description":"denn's Biomarkt ist ein Supermarkt, der ausschließlich Bio-Lebensmittel führt. Außerdem findet man vegane, regionale und fair hergestellte Produkte.","price":"","city":"Berlin","website":"www.denns-biomarkt.de","type":"denn's","hours":"Mo - Sa 08:00 - 21:00 Uhr","tags":["bio","regional","fair","unter anderem vegan"]},{"lat":52.4062016,"lng":13.2694348,"name":"denn's Biomarkt Berlin","description":"denn's Biomarkt ist ein Supermarkt, der ausschließlich Bio-Lebensmittel führt. Außerdem findet man vegane, regionale und fair hergestellte Produkte.","price":"","city":"Berlin","website":"www.denns-biomarkt.de","type":"denn's","hours":"Mo - Sa 08:00 - 20:00 Uhr","tags":["bio","regional","fair","unter anderem vegan"]},{"lat":52.5101929,"lng":13.4519826000001,"name":"denn's Biomarkt Berlin","description":"denn's Biomarkt ist ein Supermarkt, der ausschließlich Bio-Lebensmittel führt. Außerdem findet man vegane, regionale und fair hergestellte Produkte.","price":"","city":"Berlin","website":"www.denns-biomarkt.de","type":"denn's","hours":"Mo - Sa 08:00 - 21:00 Uhr","tags":["bio","regional","fair","unter anderem vegan"]},{"lat":52.5808815,"lng":13.402583,"name":"denn's Biomarkt Berlin","description":"denn's Biomarkt ist ein Supermarkt, der ausschließlich Bio-Lebensmittel führt. Außerdem findet man vegane, regionale und fair hergestellte Produkte.","price":"","city":"Berlin","website":"www.denns-biomarkt.de","type":"denn's","hours":"Mo - Sa 08:00 - 21:00 Uhr","tags":["bio","regional","fair","unter anderem vegan"]},{"lat":52.037851,"lng":8.52472599999999,"name":"denn's Biomarkt Bielefeld","description":"denn's Biomarkt ist ein Supermarkt, der ausschließlich Bio-Lebensmittel führt. Außerdem findet man vegane, regionale und fair hergestellte Produkte.","price":"","city":"Bielefeld","website":"www.denns-biomarkt.de","type":"denn's","hours":"Mo - Sa 08:00 - 20:00 Uhr","tags":["bio","regional","fair","unter anderem vegan"]},{"lat":51.4639644,"lng":7.15238929999998,"name":"denn's Biomarkt Bochum","description":"denn's Biomarkt ist ein Supermarkt, der ausschließlich Bio-Lebensmittel führt. Außerdem findet man vegane, regionale und fair hergestellte Produkte.","price":"","city":"Bochum","website":"www.denns-biomarkt.de","type":"denn's","hours":"Mo - Sa 08:00 - 20:00 Uhr","tags":["bio","regional","fair","unter anderem vegan"]},{"lat":51.45833,"lng":7.19666000000007,"name":"denn's Biomarkt Bochum ","description":"denn's Biomarkt ist ein Supermarkt, der ausschließlich Bio-Lebensmittel führt. Außerdem findet man vegane, regionale und fair hergestellte Produkte.","price":"","city":"Bochum","website":"www.denns-biomarkt.de","type":"denn's","hours":"Mo - Sa 08:00 - 20:00 Uhr","tags":["bio","regional","fair","unter anderem vegan"]},{"lat":50.7383989,"lng":7.10091920000002,"name":"denn's Biomarkt Bonn ","description":"denn's Biomarkt ist ein Supermarkt, der ausschließlich Bio-Lebensmittel führt. Außerdem findet man vegane, regionale und fair hergestellte Produkte.","price":"","city":"Bonn","website":"www.denns-biomarkt.de","type":"denn's","hours":"Mo - Sa 08:00 - 20:00 Uhr","tags":["bio","regional","fair","unter anderem vegan"]},{"lat":50.7250013,"lng":7.07025220000003,"name":"denn's Biomarkt Bonn GmbH","description":"denn's Biomarkt ist ein Supermarkt, der ausschließlich Bio-Lebensmittel führt. Außerdem findet man vegane, regionale und fair hergestellte Produkte.","price":"","city":"Bonn","website":"www.denns-biomarkt.de","type":"denn's","hours":"","tags":["bio","regional","fair","unter anderem vegan"]},{"lat":52.2504676,"lng":10.5301863,"name":"denn's Biomarkt Braunschweig","description":"denn's Biomarkt ist ein Supermarkt, der ausschließlich Bio-Lebensmittel führt. Außerdem findet man vegane, regionale und fair hergestellte Produkte.","price":"","city":"Braunschweig","website":"www.denns-biomarkt.de","type":"denn's","hours":"Mo - Sa 08:00 - 20:00 Uhr","tags":["bio","regional","fair","unter anderem vegan"]},{"lat":52.272633,"lng":10.506164,"name":"denn's Biomarkt Braunschweig","description":"denn's Biomarkt ist ein Supermarkt, der ausschließlich Bio-Lebensmittel führt. Außerdem findet man vegane, regionale und fair hergestellte Produkte.\n","price":"","city":"Braunschweig","website":"www.denns-biomarkt.de","type":"denn's","hours":"Mo - Sa 08:00 - 20:00 Uhr","tags":["bio","regional","fair","unter anderem vegan"]},{"lat":49.0372287,"lng":8.70833270000003,"name":"denn's Biomarkt Bretten","description":"denn's Biomarkt ist ein Supermarkt, der ausschließlich Bio-Lebensmittel führt. Außerdem findet man vegane, regionale und fair hergestellte Produkte.","price":"","city":"Bretten","website":"www.denns-biomarkt.de","type":"denn's","hours":"Mo - Fr 09:00 - 19:00 Uhr\nSa: 08:00 - 19:00 Uhr","tags":["bio","regional","fair","unter anderem vegan"]},{"lat":48.04011,"lng":11.662501,"name":"denn's Biomarkt Brunnthal","description":"denn's Biomarkt ist ein Supermarkt, der ausschließlich Bio-Lebensmittel führt. Außerdem findet man vegane, regionale und fair hergestellte Produkte.","price":"","city":"Brunnthal ","website":"www.denns-biomarkt.de","type":"denn's","hours":"Mo - Sa 08:00 - 20:00 Uhr","tags":["bio","regional","fair","unter anderem vegan"]},{"lat":52.4906318,"lng":9.85930080000003,"name":"denn's Biomarkt Burgwedel","description":"denn's Biomarkt ist ein Supermarkt, der ausschließlich Bio-Lebensmittel führt. Außerdem findet man vegane, regionale und fair hergestellte Produkte.","price":"","city":"Burgwedel","website":"www.denns-biomarkt.de","type":"denn's","hours":"Mo - Fr 09:00 - 20:00 Uhr\nSa: 09:00 - 18:00 Uhr","tags":["bio","regional","fair","unter anderem vegan"]},{"lat":52.638963,"lng":10.0759430000001,"name":"denn's Biomarkt Celle","description":"denn's Biomarkt ist ein Supermarkt, der ausschließlich Bio-Lebensmittel führt. Außerdem findet man vegane, regionale und fair hergestellte Produkte.","price":"","city":"Celle","website":"www.denns-biomarkt.de","type":"denn's\n","hours":"Mo - Sa 08:00 - 20:00 Uhr","tags":["bio","regional","fair","unter anderem vegan"]},{"lat":49.2192085,"lng":12.6689013,"name":"denn's Biomarkt Cham","description":"denn's Biomarkt ist ein Supermarkt, der ausschließlich Bio-Lebensmittel führt. Außerdem findet man vegane, regionale und fair hergestellte Produkte.","price":"","city":"Cham","website":"www.denns-biomarkt.de","type":"denn's","hours":"Mo - Sa 08:00 - 20:00 Uhr","tags":["bio","regional","fair","unter anderem vegan"]},{"lat":50.8345171,"lng":12.9237009999999,"name":"denn's Biomarkt Chemnitz","description":"denn's Biomarkt ist ein Supermarkt, der ausschließlich Bio-Lebensmittel führt. Außerdem findet man vegane, regionale und fair hergestellte Produkte.\n","price":"","city":"Chemnitz","website":"www.denns-biomarkt.de","type":"denn's","hours":"Mo - Sa 08:00 - 20:00 Uhr","tags":["bio","regional","fair","unter anderem vegan"]},{"lat":50.2656428,"lng":10.9608193,"name":"denn's Biomarkt Coburg","description":"denn's Biomarkt ist ein Supermarkt, der ausschließlich Bio-Lebensmittel führt. Außerdem findet man vegane, regionale und fair hergestellte Produkte.","price":"","city":"Coburg","website":"www.denns-biomarkt.de","type":"denn's","hours":"Mo - Sa 08:00 - 20:00 Uhr","tags":["bio","regional","fair","unter anderem vegan\n"]},{"lat":48.25654,"lng":11.4696,"name":"denn's Biomarkt Dachau","description":"denn's Biomarkt ist ein Supermarkt, der ausschließlich Bio-Lebensmittel führt. Außerdem findet man vegane, regionale und fair hergestellte Produkte.","price":"","city":"Dachau","website":"www.denns-biomarkt.de","type":"denn's","hours":"Mo - Sa 08:00 - 20:00 Uhr","tags":["bio","regional","fair","unter anderem vegan"]},{"lat":49.907512,"lng":8.84694999999999,"name":"denn's Biomarkt Dieburg","description":"denn's Biomarkt ist ein Supermarkt, der ausschließlich Bio-Lebensmittel führt. Außerdem findet man vegane, regionale und fair hergestellte Produkte.","price":"","city":"Dieburg","website":"www.denns-biomarkt.de","type":"denn's","hours":"Mo - Fr 08:00 - 20:00 Uhr\nSa: 08:00 - 18:00 Uhr","tags":["bio","regional","fair","unter anderem vegan"]},{"lat":51.5059003,"lng":7.45142880000003,"name":"denn's Biomarkt Dortmund","description":"denn's Biomarkt ist ein Supermarkt, der ausschließlich Bio-Lebensmittel führt. Außerdem findet man vegane, regionale und fair hergestellte Produkte.","price":"","city":"Dortmund","website":"www.denns-biomarkt.de","type":"denn's","hours":"Mo - Sa 08:00 - 20:00 Uhr","tags":["bio","regional","fair","unter anderem vegan"]},{"lat":50.7918559,"lng":6.48850210000001,"name":"denn's Biomarkt Düren","description":"denn's Biomarkt ist ein Supermarkt, der ausschließlich Bio-Lebensmittel führt. Außerdem findet man vegane, regionale und fair hergestellte Produkte.\n","price":"","city":"Düren","website":"www.denns-biomarkt.de","type":"denn's","hours":"Mo - Sa 08:00 - 20:00 Uhr","tags":["bio","regional","fair","unter anderem vegan"]},{"lat":51.2282622,"lng":6.78983579999999,"name":"denn's Biomarkt Düsseldorf","description":"denn's Biomarkt ist ein Supermarkt, der ausschließlich Bio-Lebensmittel führt. Außerdem findet man vegane, regionale und fair hergestellte Produkte.","price":"","city":"Düsseldorf","website":"www.denns-biomarkt.de","type":"denn's","hours":"Mo - Sa 08:00 - 21:00 Uhr","tags":["bio","regional","fair","unter anderem vegan"]},{"lat":48.28263,"lng":9.71724800000004,"name":"denn's Biomarkt Ehingen","description":"denn's Biomarkt ist ein Supermarkt, der ausschließlich Bio-Lebensmittel führt. Außerdem findet man vegane, regionale und fair hergestellte Produkte.","price":"","city":"Ehingen","website":"www.denns-biomarkt.de","type":"denn's","hours":"Mo - Sa 08:00 - 20:00 Uhr","tags":["bio","regional","fair","unter anderem vegan"]},{"lat":50.9764993,"lng":10.3386262,"name":"denn's Biomarkt Eisenach","description":"denn's Biomarkt ist ein Supermarkt, der ausschließlich Bio-Lebensmittel führt. Außerdem findet man vegane, regionale und fair hergestellte Produkte.","price":"","city":"Eisenach","website":"www.denns-biomarkt.de","type":"denn's","hours":"Mo - Sa 08:00 - 20:00 Uhr","tags":["bio","regional","fair","unter anderem vegan"]},{"lat":53.7463723,"lng":9.69760180000003,"name":"denn's Biomarkt Elmshorn","description":"denn's Biomarkt ist ein Supermarkt, der ausschließlich Bio-Lebensmittel führt. Außerdem findet man vegane, regionale und fair hergestellte Produkte.","price":"","city":"Elmshorn","website":"www.denns-biomarkt.de","type":"denn's","hours":"Mo - Fr 08:00 - 19:00 Uhr\nSa: 08:00 - 18:00 Uhr","tags":["bio","regional","fair","unter anderem vegan"]},{"lat":48.3049064,"lng":11.9181034000001,"name":"denn's Biomarkt Erding","description":"denn's Biomarkt ist ein Supermarkt, der ausschließlich Bio-Lebensmittel führt. Außerdem findet man vegane, regionale und fair hergestellte Produkte.","price":"","city":"Erding","website":"www.denns-biomarkt.de","type":"denn's","hours":"Mo - Fr 08:00 - 20:00 Uhr\nSa: 08:00 - 18:00 Uhr","tags":["bio","regional","fair","unter anderem vegan"]},{"lat":49.579,"lng":11.0027325,"name":"denn's Biomarkt Erlangen","description":"denn's Biomarkt ist ein Supermarkt, der ausschließlich Bio-Lebensmittel führt. Außerdem findet man vegane, regionale und fair hergestellte Produkte.","price":"","city":"Erlangen","website":"www.denns-biomarkt.de","type":"denn's","hours":"Mo - Sa 08:00 - 20:00 Uhr","tags":["bio","regional","fair","unter anderem vegan"]},{"lat":50.1337132,"lng":8.56245119999994,"name":"denn's Biomarkt Eschborn","description":"denn's Biomarkt ist ein Supermarkt, der ausschließlich Bio-Lebensmittel führt. Außerdem findet man vegane, regionale und fair hergestellte Produkte.","price":"","city":"Eschborn","website":"www.denns-biomarkt.de","type":"denn's","hours":"Mo - Sa 08:00 - 20:00 Uhr","tags":["bio","regional","fair","unter anderem vegan"]},{"lat":51.457578,"lng":6.98577709999995,"name":"denn's Biomarkt Essen","description":"denn's Biomarkt ist ein Supermarkt, der ausschließlich Bio-Lebensmittel führt. Außerdem findet man vegane, regionale und fair hergestellte Produkte.","price":"","city":"Essen","website":"www.denns-biomarkt.de","type":"denn's","hours":"Mo - Sa 08:00 - 20:00 Uhr","tags":["bio","regional","fair","unter anderem vegan"]},{"lat":51.4209373,"lng":6.95945830000005,"name":"denn's Biomarkt Essen","description":"denn's Biomarkt ist ein Supermarkt, der ausschließlich Bio-Lebensmittel führt. Außerdem findet man vegane, regionale und fair hergestellte Produkte.","price":"","city":"Essen","website":"www.denns-biomarkt.de","type":"denn's","hours":"Mo - Sa 08:00 - 21:00 Uhr","tags":["bio","regional","fair","unter anderem vegan"]},{"lat":51.44052,"lng":7.00665300000003,"name":"denn's Biomarkt Essen","description":"denn's Biomarkt ist ein Supermarkt, der ausschließlich Bio-Lebensmittel führt. Außerdem findet man vegane, regionale und fair hergestellte Produkte.","price":"","city":"Essen","website":"www.denns-biomarkt.de\n","type":"denn's","hours":"Mo - Sa 08:00 - 20:00 Uhr\n","tags":["bio","regional","fair","unter anderem vegan"]},{"lat":54.7782682,"lng":9.41435639999997,"name":"denn's Biomarkt Flensburg","description":"denn's Biomarkt ist ein Supermarkt, der ausschließlich Bio-Lebensmittel führt. Außerdem findet man vegane, regionale und fair hergestellte Produkte.","price":"","city":"Flensburg","website":"www.denns-biomarkt.de","type":"denn's","hours":"Mo - Sa 08:00 - 20:00 Uhr","tags":["bio","regional","fair","unter anderem vegan"]},{"lat":49.7212975,"lng":11.0653498,"name":"denn's Biomarkt Forchheim","description":"denn's Biomarkt ist ein Supermarkt, der ausschließlich Bio-Lebensmittel führt. Außerdem findet man vegane, regionale und fair hergestellte Produkte.","price":"","city":"Forchheim","website":"www.denns-biomarkt.de\n","type":"denn's\n","hours":"Mo - Fr 08:00 - 19:00 Uhr\nSa: 08:00 - 18:00 Uhr","tags":["bio","regional","fair","unter anderem vegan"]},{"lat":50.1240337,"lng":8.69140700000003,"name":"denn's Biomarkt Frankfurt","description":"denn's Biomarkt ist ein Supermarkt, der ausschließlich Bio-Lebensmittel führt. Außerdem findet man vegane, regionale und fair hergestellte Produkte.","price":"","city":"Frankfurt (Main)","website":"www.denns-biomarkt.de","type":"denn's","hours":"Mo - Do 07:30 - 20:00 Uhr\nFr: 07:30 - 21:00 Uhr\nSa: 07:30 - 20:00 Uhr\n","tags":["bio","regional","fair","unter anderem vegan"]},{"lat":50.126827,"lng":8.70855299999994,"name":"denn's Biomarkt Frankfurt","description":"denn's Biomarkt ist ein Supermarkt, der ausschließlich Bio-Lebensmittel führt. Außerdem findet man vegane, regionale und fair hergestellte Produkte.","price":"","city":"Frankfurt (Main)","website":"www.denns-biomarkt.de","type":"denn's","hours":"Mo - Sa 08:00 - 20:00 Uhr","tags":["bio","regional","fair","unter anderem vegan"]},{"lat":48.006981,"lng":7.82852400000002,"name":"denn's Biomarkt Freiburg","description":"denn's Biomarkt ist ein Supermarkt, der ausschließlich Bio-Lebensmittel führt. Außerdem findet man vegane, regionale und fair hergestellte Produkte.","price":"","city":"Freiburg","website":"www.denns-biomarkt.de","type":"denn's","hours":"Mo - Sa 08:00 - 20:00 Uhr","tags":["bio","regional","fair","unter anderem vegan"]},{"lat":48.4046929,"lng":11.7544992000001,"name":"denn's Biomarkt Freising","description":"denn's Biomarkt ist ein Supermarkt, der ausschließlich Bio-Lebensmittel führt. Außerdem findet man vegane, regionale und fair hergestellte Produkte.","price":"","city":"Freising","website":"www.denns-biomarkt.de","type":"denn's","hours":"Mo - Sa 08:00 - 20:00 Uhr","tags":["bio","regional","fair","unter anderem vegan"]},{"lat":50.545762,"lng":9.67429800000002,"name":"denn's Biomarkt Fulda","description":"denn's Biomarkt ist ein Supermarkt, der ausschließlich Bio-Lebensmittel führt. Außerdem findet man vegane, regionale und fair hergestellte Produkte.","price":"","city":"Fulda","website":"www.denns-biomarkt.de","type":"denn's","hours":"Mo - Fr 08:00 - 20:00 Uhr\nSa: 08:00 - 19:00 Uhr","tags":["bio","regional","fair","unter anderem vegan"]},{"lat":49.4817988,"lng":11.00917,"name":"denn's Biomarkt Fürth","description":"denn's Biomarkt ist ein Supermarkt, der ausschließlich Bio-Lebensmittel führt. Außerdem findet man vegane, regionale und fair hergestellte Produkte.","price":"","city":"Fürth","website":"www.denns-biomarkt.de","type":"denn's","hours":"Mo - Sa 08:00 - 20:00 Uhr","tags":["bio","regional","fair","unter anderem vegan\n"]},{"lat":47.49571,"lng":11.09547,"name":"denn's Biomarkt Garmisch-Partenkirchen","description":"denn's Biomarkt ist ein Supermarkt, der ausschließlich Bio-Lebensmittel führt. Außerdem findet man vegane, regionale und fair hergestellte Produkte.","price":"","city":"Garmisch Partenkirchen","website":"www.denns-biomarkt.de","type":"denn's","hours":"Mo - Fr 08:00 - 19:00 Uhr\nSa: 08:00 - 18:00 Uhr","tags":["bio","regional","fair","unter anderem vegan"]},{"lat":50.2011765,"lng":9.17712649999999,"name":"denn's Biomarkt Gelnhausen","description":"denn's Biomarkt ist ein Supermarkt, der ausschließlich Bio-Lebensmittel führt. Außerdem findet man vegane, regionale und fair hergestellte Produkte.","price":"","city":"Gelnhausen","website":"www.denns-biomarkt.de","type":"denn's","hours":"Mo - Sa 08:00 - 20:00 Uhr","tags":["bio","regional","fair","unter anderem vegan"]},{"lat":47.85735,"lng":11.48605,"name":"denn's Biomarkt Geretsried","description":"denn's Biomarkt ist ein Supermarkt, der ausschließlich Bio-Lebensmittel führt. Außerdem findet man vegane, regionale und fair hergestellte Produkte.","price":"","city":"Geretsried","website":"www.denns-biomarkt.de","type":"denn's","hours":"Mo - Sa 08:00 - 20:00 Uhr","tags":["bio","regional","fair","unter anderem vegan"]},{"lat":51.3258583,"lng":7.35316469999998,"name":"denn's Biomarkt Gevelsberg","description":"denn's Biomarkt ist ein Supermarkt, der ausschließlich Bio-Lebensmittel führt. Außerdem findet man vegane, regionale und fair hergestellte Produkte.","price":"","city":"Gevelsberg","website":"www.denns-biomarkt.de","type":"denn's","hours":"Mo - Fr 08:00 - 19:00 Uhr\nSa: 08:00 - 18:00 Uhr\n","tags":["bio","regional","fair","unter anderem vegan"]},{"lat":50.5870056,"lng":8.65563840000004,"name":"denn's Biomarkt Gießen","description":"denn's Biomarkt ist ein Supermarkt, der ausschließlich Bio-Lebensmittel führt. Außerdem findet man vegane, regionale und fair hergestellte Produkte.","price":"","city":"Gießen","website":"www.denns-biomarkt.de","type":"denn's","hours":"Mo - Sa 08:00 - 20:00 Uhr","tags":["bio","regional","fair","unter anderem vegan"]},{"lat":50.5711184,"lng":8.69241280000006,"name":"denn's Biomarkt Gießen","description":"denn's Biomarkt ist ein Supermarkt, der ausschließlich Bio-Lebensmittel führt. Außerdem findet man vegane, regionale und fair hergestellte Produkte.","price":"","city":"Gießen","website":"www.denns-biomarkt.de","type":"denn's","hours":"Mo - Sa 08:00 - 20:00 Uhr","tags":["bio","regional","fair","unter anderem vegan"]},{"lat":51.550742,"lng":7.00916099999995,"name":"denn's Biomarkt Gladbeck","description":"denn's Biomarkt ist ein Supermarkt, der ausschließlich Bio-Lebensmittel führt. Außerdem findet man vegane, regionale und fair hergestellte Produkte.","price":"","city":"Gladbeck","website":"www.denns-biomarkt.de","type":"denn's","hours":"Mo - Sa 06:30 - 20:00 Uhr","tags":["bio","regional","fair","unter anderem vegan"]},{"lat":48.701825,"lng":9.66024600000003,"name":"denn's Biomarkt Göppingen","description":"denn's Biomarkt ist ein Supermarkt, der ausschließlich Bio-Lebensmittel führt. Außerdem findet man vegane, regionale und fair hergestellte Produkte.","price":"","city":"Göppingen","website":"www.denns-biomarkt.de","type":"denn's\n","hours":"Mo - Sa 08:00 - 20:00 Uhr","tags":["bio","regional","fair","unter anderem vegan\n"]},{"lat":48.19316,"lng":11.369412,"name":"denn's Biomarkt Gröbenzell","description":"denn's Biomarkt ist ein Supermarkt, der ausschließlich Bio-Lebensmittel führt. Außerdem findet man vegane, regionale und fair hergestellte Produkte.\n","price":"","city":"Gröbenzell","website":"www.denns-biomarkt.de\n","type":"denn's","hours":"Mo - Fr 08:00 - 20:00 Uhr\nSa: 08:00 - 19:00 Uhr","tags":["bio","regional","fair","unter anderem vegan"]},{"lat":49.91627,"lng":10.8659908,"name":"denn's Biomarkt Hallstadt","description":"denn's Biomarkt ist ein Supermarkt, der ausschließlich Bio-Lebensmittel führt. Außerdem findet man vegane, regionale und fair hergestellte Produkte.","price":"","city":"Hallstadt","website":"www.denns-biomarkt.de","type":"denn's","hours":"Mo - Sa 09:00 - 19:00 Uhr","tags":["bio","regional","fair","unter anderem vegan"]},{"lat":53.6354642,"lng":9.91950369999995,"name":"denn's Biomarkt Hamburg","description":"denn's Biomarkt ist ein Supermarkt, der ausschließlich Bio-Lebensmittel führt. Außerdem findet man vegane, regionale und fair hergestellte Produkte.","price":"","city":"Hamburg","website":"www.denns-biomarkt.de","type":"denn's","hours":"Mo - Sa 08:00 - 20:00 Uhr","tags":["bio","regional","fair","unter anderem vegan"]},{"lat":53.602511,"lng":10.04,"name":"denn's Biomarkt Hamburg","description":"denn's Biomarkt ist ein Supermarkt, der ausschließlich Bio-Lebensmittel führt. Außerdem findet man vegane, regionale und fair hergestellte Produkte.","price":"","city":"Hamburg","website":"www.denns-biomarkt.de","type":"denn's","hours":"Mo - Fr 09:00 - 20:00 Uhr\nSa: 08:00 - 20:00 Uhr","tags":["bio","regional","fair","unter anderem vegan\n"]},{"lat":53.5516946,"lng":9.94316709999998,"name":"denn's Biomarkt Hamburg","description":"denn's Biomarkt ist ein Supermarkt, der ausschließlich Bio-Lebensmittel führt. Außerdem findet man vegane, regionale und fair hergestellte Produkte.","price":"","city":"Hamburg","website":"www.denns-biomarkt.de","type":"denn's","hours":"Mo - Sa 08:00 - 20:30 Uhr","tags":["bio","regional","fair","unter anderem vegan"]},{"lat":53.588557,"lng":10.0451909999999,"name":"denn's Biomarkt Hamburg","description":"denn's Biomarkt ist ein Supermarkt, der ausschließlich Bio-Lebensmittel führt. Außerdem findet man vegane, regionale und fair hergestellte Produkte.","price":"","city":"Hamburg","website":"www.denns-biomarkt.de","type":"denn's","hours":"Mo - Sa 08:00 - 20:00 Uhr","tags":["bio","regional","fair","unter anderem vegan"]},{"lat":53.551839,"lng":9.92874900000004,"name":"denn's Biomarkt Hamburg","description":"denn's Biomarkt ist ein Supermarkt, der ausschließlich Bio-Lebensmittel führt. Außerdem findet man vegane, regionale und fair hergestellte Produkte.","price":"","city":"Hamburg","website":"www.denns-biomarkt.de","type":"denn's","hours":"Mo - Mi 08:00 - 20:00 Uhr\nDo- Fr: 08:00 - 21:00 Uhr\nSa: 08:00 - 20:00 Uhr","tags":["bio","regional","fair","unter anderem vegan"]},{"lat":53.5659657,"lng":9.97663299999999,"name":"denn's Biomarkt Hamburg","description":"denn's Biomarkt ist ein Supermarkt, der ausschließlich Bio-Lebensmittel führt. Außerdem findet man vegane, regionale und fair hergestellte Produkte.\n","price":"","city":"Hamburg","website":"www.denns-biomarkt.de","type":"denn's","hours":"Mo - Sa 09:00 - 20:00 Uhr","tags":["bio","regional","fair","unter anderem vegan"]},{"lat":53.5649928,"lng":9.9654104,"name":"denn's Biomarkt Hamburg","description":"denn's Biomarkt ist ein Supermarkt, der ausschließlich Bio-Lebensmittel führt. Außerdem findet man vegane, regionale und fair hergestellte Produkte.","price":"","city":"Hamburg","website":"www.denns-biomarkt.de","type":"denn's","hours":"Mo - Sa 08:00 - 21:00 Uhr","tags":["bio","regional","fair","unter anderem vegan"]},{"lat":53.486353,"lng":10.214193,"name":"denn's Biomarkt Hamburg","description":"denn's Biomarkt ist ein Supermarkt, der ausschließlich Bio-Lebensmittel führt. Außerdem findet man vegane, regionale und fair hergestellte Produkte.","price":"","city":"Hamburg","website":"www.denns-biomarkt.de","type":"denn's","hours":"Mo - Sa 08:00 - 20:00 Uhr","tags":["bio","regional","fair","unter anderem vegan"]},{"lat":50.1316609,"lng":8.91130180000005,"name":"denn's Biomarkt Hanau","description":"denn's Biomarkt ist ein Supermarkt, der ausschließlich Bio-Lebensmittel führt. Außerdem findet man vegane, regionale und fair hergestellte Produkte.","price":"","city":"Hanau","website":"www.denns-biomarkt.de","type":"denn's","hours":"Mo - Sa 08:00 - 20:00 Uhr","tags":["bio","regional","fair","unter anderem vegan"]},{"lat":52.3856616,"lng":9.7468533,"name":"denn's Biomarkt Hannover","description":"denn's Biomarkt ist ein Supermarkt, der ausschließlich Bio-Lebensmittel führt. Außerdem findet man vegane, regionale und fair hergestellte Produkte.","price":"","city":"Hannover","website":"www.denns-biomarkt.de","type":"denn's","hours":"Mo - Sa 08:00 - 20:00 Uhr","tags":["bio","regional","fair","unter anderem vegan"]},{"lat":52.4031768,"lng":9.79131959999995,"name":"denn's Biomarkt Hannover","description":"denn's Biomarkt ist ein Supermarkt, der ausschließlich Bio-Lebensmittel führt. Außerdem findet man vegane, regionale und fair hergestellte Produkte.","price":"","city":"Hannover","website":"www.denns-biomarkt.de","type":"denn's","hours":"Mo - Sa 08:00 - 20:00 Uhr","tags":["bio","regional","fair","unter anderem vegan"]},{"lat":52.3835552,"lng":9.72554249999996,"name":"denn's Biomarkt Hannover","description":"denn's Biomarkt ist ein Supermarkt, der ausschließlich Bio-Lebensmittel führt. Außerdem findet man vegane, regionale und fair hergestellte Produkte.\n","price":"","city":"Hannover","website":"www.denns-biomarkt.de","type":"denn's","hours":"Mo - Sa 08:00 - 20:00 Uhr","tags":["bio","regional","fair","unter anderem vegan\n"]},{"lat":52.371595,"lng":9.71248000000003,"name":"denn's Biomarkt Hannover","description":"denn's Biomarkt ist ein Supermarkt, der ausschließlich Bio-Lebensmittel führt. Außerdem findet man vegane, regionale und fair hergestellte Produkte.","price":"","city":"Hannover","website":"www.denns-biomarkt.de","type":"denn's","hours":"Mo - Sa 08:00 - 20:00 Uhr","tags":["bio","regional","fair","unter anderem vegan"]},{"lat":52.369635,"lng":9.75107300000002,"name":"denn's Biomarkt Hannover","description":"denn's Biomarkt ist ein Supermarkt, der ausschließlich Bio-Lebensmittel führt. Außerdem findet man vegane, regionale und fair hergestellte Produkte.\n","price":"","city":"Hannover","website":"www.denns-biomarkt.de","type":"denn's","hours":"Mo - Sa 08:00 - 20:00 Uhr","tags":["bio","regional","fair","unter anderem vegan"]},{"lat":52.3702487,"lng":9.73782890000007,"name":"denn's Biomarkt Hannover","description":"denn's Biomarkt ist ein Supermarkt, der ausschließlich Bio-Lebensmittel führt. Außerdem findet man vegane, regionale und fair hergestellte Produkte.","price":"","city":"Hannover","website":"www.denns-biomarkt.de","type":"denn's","hours":"Mo - Sa 08:00 - 21:00 Uhr","tags":["bio","regional","fair","unter anderem vegan"]},{"lat":52.3607761,"lng":9.82919140000001,"name":"denn's Biomarkt Hannover","description":"denn's Biomarkt ist ein Supermarkt, der ausschließlich Bio-Lebensmittel führt. Außerdem findet man vegane, regionale und fair hergestellte Produkte.","price":"","city":"Hannover","website":"www.denns-biomarkt.de","type":"denn's","hours":"Mo - Fr 08:00 - 19:00 Uhr\nSa: 08:00 - 16:00 Uhr","tags":["bio","regional","fair","unter anderem vegan"]},{"lat":49.405509,"lng":8.68832280000004,"name":"denn's Biomarkt Heidelberg","description":"denn's Biomarkt ist ein Supermarkt, der ausschließlich Bio-Lebensmittel führt. Außerdem findet man vegane, regionale und fair hergestellte Produkte.","price":"","city":"www.denns-biomarkt.de","website":"www.denns-biomarkt.de","type":"denn's","hours":"Mo - Sa 09:00 - 20:00 Uhr","tags":["bio","regional","fair","unter anderem vegan"]},{"lat":49.4360277,"lng":8.68065569999999,"name":"denn's Biomarkt Heidelberg","description":"denn's Biomarkt ist ein Supermarkt, der ausschließlich Bio-Lebensmittel führt. Außerdem findet man vegane, regionale und fair hergestellte Produkte.","price":"","city":"Heidelberg","website":"www.denns-biomarkt.de","type":"denn's","hours":"Mo - Sa 08:00 - 20:00 Uhr","tags":["bio","regional","fair","unter anderem vegan"]},{"lat":48.68,"lng":10.12553,"name":"denn's Biomarkt Heidenheim","description":"denn's Biomarkt ist ein Supermarkt, der ausschließlich Bio-Lebensmittel führt. Außerdem findet man vegane, regionale und fair hergestellte Produkte.","price":"","city":"Heidenheim","website":"www.denns-biomarkt.de","type":"denn's\n","hours":"Mo - Sa 08:00 - 20:00 Uhr","tags":["bio","regional","fair","unter anderem vegan\n"]},{"lat":49.151878,"lng":9.21197699999993,"name":"denn's Biomarkt Heilbronn","description":"denn's Biomarkt ist ein Supermarkt, der ausschließlich Bio-Lebensmittel führt. Außerdem findet man vegane, regionale und fair hergestellte Produkte.","price":"","city":"Heilbronn","website":"www.denns-biomarkt.de","type":"denn's","hours":"Mo - Sa 08:00 - 20:00 Uhr","tags":["bio","regional","fair","unter anderem vegan"]},{"lat":50.7753687,"lng":7.28215150000005,"name":"denn's Biomarkt Hennef","description":"denn's Biomarkt ist ein Supermarkt, der ausschließlich Bio-Lebensmittel führt. Außerdem findet man vegane, regionale und fair hergestellte Produkte.","price":"","city":"Hennef","website":"www.denns-biomarkt.de","type":"denn's","hours":"Mo - Sa 08:00 - 20:00 Uhr","tags":["bio","regional","fair","unter anderem vegan"]},{"lat":52.12477,"lng":8.68363499999998,"name":"denn's Biomarkt Herford","description":"denn's Biomarkt ist ein Supermarkt, der ausschließlich Bio-Lebensmittel führt. Außerdem findet man vegane, regionale und fair hergestellte Produkte.","price":"","city":"Herford","website":"www.denns-biomarkt.de","type":"denn's","hours":"Mo - Fr 08:00 - 19:00 Uhr\nSa: 08:00 - 18:00 Uhr","tags":["bio","regional","fair","unter anderem vegan"]},{"lat":49.5775354,"lng":10.8847307999999,"name":"denn's Biomarkt Herzogenaurach","description":"denn's Biomarkt ist ein Supermarkt, der ausschließlich Bio-Lebensmittel führt. Außerdem findet man vegane, regionale und fair hergestellte Produkte.","price":"","city":"Herzogenaurach","website":"www.denns-biomarkt.de","type":"denn's","hours":"Mo - Sa 08:00 - 20:00 Uhr","tags":["bio","regional","fair","unter anderem vegan"]},{"lat":51.1681874,"lng":6.93845160000001,"name":"denn's Biomarkt Hilden","description":"denn's Biomarkt ist ein Supermarkt, der ausschließlich Bio-Lebensmittel führt. Außerdem findet man vegane, regionale und fair hergestellte Produkte.\n","price":"","city":"Hilden","website":"www.denns-biomarkt.de","type":"denn's","hours":"Mo - Fr 08:00 - 20:00 Uhr\nSa: 08:00 - 19:00 Uhr","tags":["bio","regional","fair","unter anderem vegan"]},{"lat":52.1393775,"lng":9.94014990000005,"name":"denn's Biomarkt Hildesheim","description":"denn's Biomarkt ist ein Supermarkt, der ausschließlich Bio-Lebensmittel führt. Außerdem findet man vegane, regionale und fair hergestellte Produkte.","price":"","city":"Hildesheim","website":"www.denns-biomarkt.de","type":"denn's","hours":"Mo - Sa 08:00 - 20:00 Uhr","tags":["bio","regional","fair","unter anderem vegan"]},{"lat":50.305421,"lng":11.918573,"name":"denn's Biomarkt Hof","description":"denn's Biomarkt ist ein Supermarkt, der ausschließlich Bio-Lebensmittel führt. Außerdem findet man vegane, regionale und fair hergestellte Produkte.","price":"","city":"Hof","website":"www.denns-biomarkt.de","type":"denn's","hours":"Mo - Mi 08:00 - 19:00 Uhr\nDo- Fr: 08:00 - 20:00 Uhr\nSa: 08:00 - 18:00 Uhr","tags":["bio","regional","fair","unter anderem vegan"]},{"lat":51.3748805,"lng":7.68655469999999,"name":"denn's Biomarkt Iserlohn","description":"denn's Biomarkt ist ein Supermarkt, der ausschließlich Bio-Lebensmittel führt. Außerdem findet man vegane, regionale und fair hergestellte Produkte.","price":"","city":"Iserlohn","website":"www.denns-biomarkt.de\n","type":"denn's","hours":"Mo - Sa 08:00 - 20:00 Uhr","tags":["bio","regional","fair","unter anderem vegan\n"]},{"lat":48.2310679,"lng":11.6879539,"name":"denn's Biomarkt Ismaning","description":"denn's Biomarkt ist ein Supermarkt, der ausschließlich Bio-Lebensmittel führt. Außerdem findet man vegane, regionale und fair hergestellte Produkte.","price":"","city":"Ismaning","website":"www.denns-biomarkt.de","type":"denn's","hours":"Mo - Sa 08:00 - 20:00 Uhr","tags":["bio","regional","fair","unter anderem vegan"]},